{"type":"FeatureCollection","features":[{"id":10261,"type":"Feature","properties":{"name":"Savage","state":"MD","type":3,"confirmed":4,"sign":0,"ordinance":4,"showcase":0},"geometry":{"type":"Point","coordinates":[-76.8317325,39.144487]}},{"id":7308,"type":"Feature","properties":{"name":"Groton","state":"MA","type":1,"confirmed":0,"sign":0,"ordinance":0,"showcase":0},"geometry":{"type":"Point","coordinates":[-71.5745,42.6112]}},{"id":9431,"type":"Feature","properties":{"name":"Washington","state":"DC","type":0,"confirmed":1,"sign":0,"ordinance":0,"showcase":0},"geometry":{"type":"Point","coordinates":[0,0]}},{"id":7315,"type":"Feature","properties":{"name":"Baker","state":"NJ","type":0,"confirmed":0,"sign":0,"ordinance":0,"showcase":0},"geometry":{"type":"Point","coordinates":[-81.63127460625,29.53412305]}},{"id":7314,"type":"Feature","properties":{"name":"Garwood","state":"NJ","type":1,"confirmed":3,"sign":0,"ordinance":0,"showcase":0},"geometry":{"type":"Point","coordinates":[-74.3229,40.6518]}},{"id":7312,"type":"Feature","properties":{"name":"Noble","state":"OK","type":0,"confirmed":0,"sign":0,"ordinance":0,"showcase":0},"geometry":{"type":"Point","coordinates":[-97.3948,35.1392]}},{"id":7311,"type":"Feature","properties":{"name":"Moore","state":"OK","type":0,"confirmed":0,"sign":0,"ordinance":0,"showcase":0},"geometry":{"type":"Point","coordinates":[-97.4867,35.3395]}},{"id":7310,"type":"Feature","properties":{"name":"Tecumseh","state":"OK","type":0,"confirmed":0,"sign":0,"ordinance":0,"showcase":0},"geometry":{"type":"Point","coordinates":[-96.9367,35.2578]}},{"id":7309,"type":"Feature","properties":{"name":"Alba","state":"TX","type":1,"confirmed":4,"sign":0,"ordinance":0,"showcase":1},"geometry":{"type":"Point","coordinates":[-95.6344,32.7929]}},{"id":7307,"type":"Feature","properties":{"name":"Marblehead","state":"MA","type":1,"confirmed":0,"sign":0,"ordinance":0,"showcase":0},"geometry":{"type":"Point","coordinates":[-70.8578,42.5001]}},{"id":7306,"type":"Feature","properties":{"name":"Hamburg","state":"NY","type":1,"confirmed":0,"sign":0,"ordinance":0,"showcase":0},"geometry":{"type":"Point","coordinates":[-78.8287,42.7163]}},{"id":7305,"type":"Feature","properties":{"name":"Yaphank","state":"NY","type":1,"confirmed":0,"sign":0,"ordinance":0,"showcase":0},"geometry":{"type":"Point","coordinates":[-72.917,40.8368]}},{"id":7304,"type":"Feature","properties":{"name":"Miller Place","state":"NY","type":1,"confirmed":0,"sign":0,"ordinance":0,"showcase":0},"geometry":{"type":"Point","coordinates":[-73.8947665,40.6819142]}},{"id":7303,"type":"Feature","properties":{"name":"Westchester County","state":"NY","type":4,"confirmed":0,"sign":0,"ordinance":0,"showcase":0},"geometry":{"type":"Point","coordinates":[-73.775,41.15]}},{"id":7302,"type":"Feature","properties":{"name":"Nunda","state":"NY","type":1,"confirmed":0,"sign":0,"ordinance":0,"showcase":0},"geometry":{"type":"Point","coordinates":[-77.9425,42.5795]}},{"id":7301,"type":"Feature","properties":{"name":"Pelham Manor","state":"NY","type":1,"confirmed":0,"sign":0,"ordinance":0,"showcase":0},"geometry":{"type":"Point","coordinates":[-73.8071,40.8954]}},{"id":7300,"type":"Feature","properties":{"name":"Glen Head","state":"NY","type":1,"confirmed":0,"sign":0,"ordinance":0,"showcase":0},"geometry":{"type":"Point","coordinates":[-73.6237,40.8354]}},{"id":7299,"type":"Feature","properties":{"name":"Voorheesville","state":"NY","type":1,"confirmed":0,"sign":0,"ordinance":0,"showcase":0},"geometry":{"type":"Point","coordinates":[-73.9287,42.654]}},{"id":7298,"type":"Feature","properties":{"name":"Hazleton","state":"PA","type":1,"confirmed":0,"sign":0,"ordinance":0,"showcase":0},"geometry":{"type":"Point","coordinates":[-75.9853,40.9647]}},{"id":7297,"type":"Feature","properties":{"name":"York County","state":"PA","type":1,"confirmed":0,"sign":0,"ordinance":0,"showcase":0},"geometry":{"type":"Point","coordinates":[-76.73,39.92]}},{"id":7296,"type":"Feature","properties":{"name":"Linglestown","state":"PA","type":1,"confirmed":0,"sign":0,"ordinance":0,"showcase":0},"geometry":{"type":"Point","coordinates":[-76.7892,40.3341]}},{"id":7295,"type":"Feature","properties":{"name":"Willoughby","state":"OH","type":1,"confirmed":0,"sign":0,"ordinance":0,"showcase":0},"geometry":{"type":"Point","coordinates":[-81.4065,41.6398]}},{"id":7294,"type":"Feature","properties":{"name":"Lodi","state":"OH","type":1,"confirmed":0,"sign":0,"ordinance":0,"showcase":0},"geometry":{"type":"Point","coordinates":[-82.012,41.033]}},{"id":7293,"type":"Feature","properties":{"name":"Enon","state":"OH","type":1,"confirmed":0,"sign":0,"ordinance":0,"showcase":0},"geometry":{"type":"Point","coordinates":[-83.9369,39.8781]}},{"id":7292,"type":"Feature","properties":{"name":"Cridersville","state":"OH","type":1,"confirmed":0,"sign":0,"ordinance":0,"showcase":0},"geometry":{"type":"Point","coordinates":[-84.1508,40.6542]}},{"id":7291,"type":"Feature","properties":{"name":"Beavercreek","state":"OH","type":1,"confirmed":0,"sign":0,"ordinance":0,"showcase":0},"geometry":{"type":"Point","coordinates":[-84.0633,39.7092]}},{"id":7290,"type":"Feature","properties":{"name":"Marion","state":"OH","type":1,"confirmed":0,"sign":0,"ordinance":0,"showcase":0},"geometry":{"type":"Point","coordinates":[-83.1285,40.5887]}},{"id":7289,"type":"Feature","properties":{"name":"Defiance","state":"OH","type":0,"confirmed":0,"sign":0,"ordinance":0,"showcase":0},"geometry":{"type":"Point","coordinates":[-84.3558,41.2845]}},{"id":7288,"type":"Feature","properties":{"name":"Chazy","state":"NY","type":1,"confirmed":0,"sign":0,"ordinance":0,"showcase":0},"geometry":{"type":"Point","coordinates":[-73.436,44.8898]}},{"id":7287,"type":"Feature","properties":{"name":"Flushing","state":"MI","type":1,"confirmed":0,"sign":0,"ordinance":0,"showcase":0},"geometry":{"type":"Point","coordinates":[-83.8511,43.0631]}},{"id":7286,"type":"Feature","properties":{"name":"Arthurdale","state":"WV","type":0,"confirmed":0,"sign":0,"ordinance":0,"showcase":0},"geometry":{"type":"Point","coordinates":[-79.827376,39.503831]}},{"id":7285,"type":"Feature","properties":{"name":"Ashland","state":"PA","type":1,"confirmed":2,"sign":0,"ordinance":0,"showcase":0},"geometry":{"type":"Point","coordinates":[-76.3458,40.7818]}},{"id":7284,"type":"Feature","properties":{"name":"Archbald","state":"PA","type":1,"confirmed":2,"sign":0,"ordinance":0,"showcase":0},"geometry":{"type":"Point","coordinates":[-75.5369,41.4948]}},{"id":7283,"type":"Feature","properties":{"name":"Amity","state":"PA","type":1,"confirmed":2,"sign":0,"ordinance":0,"showcase":0},"geometry":{"type":"Point","coordinates":[-80.2051,40.0395]}},{"id":7282,"type":"Feature","properties":{"name":"Alsace","state":"PA","type":1,"confirmed":2,"sign":0,"ordinance":0,"showcase":0},"geometry":{"type":"Point","coordinates":[-75.70170595,40.6371213]}},{"id":7281,"type":"Feature","properties":{"name":"Allegheny","state":"PA","type":1,"confirmed":2,"sign":0,"ordinance":0,"showcase":0},"geometry":{"type":"Point","coordinates":[-75.11047,39.992738]}},{"id":7280,"type":"Feature","properties":{"name":"Albany","state":"PA","type":0,"confirmed":2,"sign":0,"ordinance":0,"showcase":0},"geometry":{"type":"Point","coordinates":[-73.7590717,42.66577675]}},{"id":7279,"type":"Feature","properties":{"name":"Adams","state":"PA","type":1,"confirmed":2,"sign":0,"ordinance":0,"showcase":0},"geometry":{"type":"Point","coordinates":[-77.22,39.87]}},{"id":7278,"type":"Feature","properties":{"name":"Coopersville","state":"MI","type":1,"confirmed":2,"sign":0,"ordinance":0,"showcase":0},"geometry":{"type":"Point","coordinates":[-85.9348,43.0639]}},{"id":7277,"type":"Feature","properties":{"name":"Troy","state":"MI","type":1,"confirmed":2,"sign":0,"ordinance":0,"showcase":0},"geometry":{"type":"Point","coordinates":[-83.1499,42.6056]}},{"id":7276,"type":"Feature","properties":{"name":"Lathrup Village","state":"MI","type":1,"confirmed":2,"sign":0,"ordinance":0,"showcase":0},"geometry":{"type":"Point","coordinates":[-83.2227,42.4964]}},{"id":7275,"type":"Feature","properties":{"name":"Sterling Heights","state":"MI","type":1,"confirmed":2,"sign":0,"ordinance":0,"showcase":0},"geometry":{"type":"Point","coordinates":[-83.0302,42.5803]}},{"id":7274,"type":"Feature","properties":{"name":"Big Star Lake","state":"MI","type":1,"confirmed":2,"sign":0,"ordinance":0,"showcase":0},"geometry":{"type":"Point","coordinates":[-85.94823,43.8321035]}},{"id":7273,"type":"Feature","properties":{"name":"White Pigeon","state":"MI","type":1,"confirmed":2,"sign":0,"ordinance":0,"showcase":0},"geometry":{"type":"Point","coordinates":[-85.6433,41.7981]}},{"id":7272,"type":"Feature","properties":{"name":"Hartford","state":"MI","type":1,"confirmed":2,"sign":0,"ordinance":0,"showcase":0},"geometry":{"type":"Point","coordinates":[-86.1667,42.2067]}},{"id":7271,"type":"Feature","properties":{"name":"Portage","state":"MI","type":1,"confirmed":2,"sign":0,"ordinance":0,"showcase":0},"geometry":{"type":"Point","coordinates":[-85.58,42.2012]}},{"id":7270,"type":"Feature","properties":{"name":"Utica","state":"OH","type":1,"confirmed":2,"sign":0,"ordinance":0,"showcase":0},"geometry":{"type":"Point","coordinates":[-82.4513,40.2342]}},{"id":7269,"type":"Feature","properties":{"name":"Wisconsin Dells","state":"WI","type":1,"confirmed":2,"sign":0,"ordinance":0,"showcase":0},"geometry":{"type":"Point","coordinates":[-89.7716,43.6256]}},{"id":7268,"type":"Feature","properties":{"name":"Winneconne","state":"WI","type":1,"confirmed":2,"sign":0,"ordinance":0,"showcase":0},"geometry":{"type":"Point","coordinates":[-88.7126,44.1108]}},{"id":7267,"type":"Feature","properties":{"name":"Wind Lake","state":"WI","type":1,"confirmed":2,"sign":0,"ordinance":0,"showcase":0},"geometry":{"type":"Point","coordinates":[-88.1587,42.8295]}},{"id":7266,"type":"Feature","properties":{"name":"Williams Bay","state":"WI","type":1,"confirmed":2,"sign":0,"ordinance":0,"showcase":0},"geometry":{"type":"Point","coordinates":[-88.5409,42.5781]}},{"id":7265,"type":"Feature","properties":{"name":"Whiting","state":"WI","type":1,"confirmed":2,"sign":0,"ordinance":0,"showcase":0},"geometry":{"type":"Point","coordinates":[-89.5587,44.4936]}},{"id":7264,"type":"Feature","properties":{"name":"Whitehall","state":"WI","type":1,"confirmed":2,"sign":0,"ordinance":0,"showcase":0},"geometry":{"type":"Point","coordinates":[-91.3165,44.3675]}},{"id":7263,"type":"Feature","properties":{"name":"Weyauwega","state":"WI","type":1,"confirmed":2,"sign":0,"ordinance":0,"showcase":0},"geometry":{"type":"Point","coordinates":[-88.9337,44.3214]}},{"id":7262,"type":"Feature","properties":{"name":"West Salem","state":"WI","type":1,"confirmed":2,"sign":0,"ordinance":0,"showcase":0},"geometry":{"type":"Point","coordinates":[-91.0812,43.8991]}},{"id":7261,"type":"Feature","properties":{"name":"Westby","state":"WI","type":1,"confirmed":1,"sign":0,"ordinance":0,"showcase":0},"geometry":{"type":"Point","coordinates":[-90.8543,43.6569]}},{"id":7260,"type":"Feature","properties":{"name":"Wautoma","state":"WI","type":1,"confirmed":2,"sign":0,"ordinance":0,"showcase":0},"geometry":{"type":"Point","coordinates":[-89.2879,44.0747]}},{"id":7259,"type":"Feature","properties":{"name":"Waunakee","state":"WI","type":1,"confirmed":2,"sign":0,"ordinance":0,"showcase":0},"geometry":{"type":"Point","coordinates":[-89.4557,43.1919]}},{"id":7258,"type":"Feature","properties":{"name":"Waterloo","state":"WI","type":1,"confirmed":2,"sign":0,"ordinance":0,"showcase":0},"geometry":{"type":"Point","coordinates":[-88.9884,43.1839]}},{"id":7257,"type":"Feature","properties":{"name":"Waterford","state":"WI","type":1,"confirmed":2,"sign":0,"ordinance":0,"showcase":0},"geometry":{"type":"Point","coordinates":[-88.2143,42.7631]}},{"id":7256,"type":"Feature","properties":{"name":"Walworth","state":"WI","type":1,"confirmed":2,"sign":0,"ordinance":0,"showcase":0},"geometry":{"type":"Point","coordinates":[-88.5995,42.5311]}},{"id":7255,"type":"Feature","properties":{"name":"Verona","state":"WI","type":1,"confirmed":2,"sign":0,"ordinance":0,"showcase":0},"geometry":{"type":"Point","coordinates":[-89.5336,42.9905]}},{"id":7254,"type":"Feature","properties":{"name":"Twin Lakes","state":"WI","type":1,"confirmed":2,"sign":0,"ordinance":0,"showcase":0},"geometry":{"type":"Point","coordinates":[-88.2479,42.5315]}},{"id":7253,"type":"Feature","properties":{"name":"Thorp","state":"WI","type":1,"confirmed":2,"sign":0,"ordinance":0,"showcase":0},"geometry":{"type":"Point","coordinates":[-90.7999,44.9611]}},{"id":7252,"type":"Feature","properties":{"name":"Stratford","state":"WI","type":1,"confirmed":2,"sign":0,"ordinance":0,"showcase":0},"geometry":{"type":"Point","coordinates":[-90.0793,44.8011]}},{"id":7251,"type":"Feature","properties":{"name":"Spring Green","state":"WI","type":1,"confirmed":2,"sign":0,"ordinance":0,"showcase":0},"geometry":{"type":"Point","coordinates":[-90.0679,43.1753]}},{"id":7250,"type":"Feature","properties":{"name":"Silver Lake","state":"WI","type":1,"confirmed":2,"sign":0,"ordinance":0,"showcase":0},"geometry":{"type":"Point","coordinates":[-88.1658,42.5459]}},{"id":7249,"type":"Feature","properties":{"name":"Shullsburg","state":"WI","type":1,"confirmed":2,"sign":0,"ordinance":0,"showcase":0},"geometry":{"type":"Point","coordinates":[-90.231,42.5733]}},{"id":7248,"type":"Feature","properties":{"name":"Shell Lake","state":"WI","type":1,"confirmed":2,"sign":0,"ordinance":0,"showcase":0},"geometry":{"type":"Point","coordinates":[-91.9231,45.743]}},{"id":7247,"type":"Feature","properties":{"name":"Sharon","state":"WI","type":1,"confirmed":2,"sign":0,"ordinance":0,"showcase":0},"geometry":{"type":"Point","coordinates":[-88.729,42.5025]}},{"id":7246,"type":"Feature","properties":{"name":"Saukville","state":"WI","type":1,"confirmed":2,"sign":0,"ordinance":0,"showcase":0},"geometry":{"type":"Point","coordinates":[-87.9406,43.3817]}},{"id":7245,"type":"Feature","properties":{"name":"St. Croix Falls","state":"WI","type":1,"confirmed":2,"sign":0,"ordinance":0,"showcase":0},"geometry":{"type":"Point","coordinates":[-92.64,45.41]}},{"id":7244,"type":"Feature","properties":{"name":"Randolph","state":"WI","type":1,"confirmed":2,"sign":0,"ordinance":0,"showcase":0},"geometry":{"type":"Point","coordinates":[-89.0068,43.5392]}},{"id":7243,"type":"Feature","properties":{"name":"Pulaski","state":"WI","type":1,"confirmed":2,"sign":0,"ordinance":0,"showcase":0},"geometry":{"type":"Point","coordinates":[-88.2426,44.6722]}},{"id":7242,"type":"Feature","properties":{"name":"Princeton","state":"WI","type":1,"confirmed":2,"sign":0,"ordinance":0,"showcase":0},"geometry":{"type":"Point","coordinates":[-89.1218,43.8508]}},{"id":7241,"type":"Feature","properties":{"name":"Prairie du Sac","state":"WI","type":1,"confirmed":2,"sign":0,"ordinance":0,"showcase":0},"geometry":{"type":"Point","coordinates":[-89.724,43.2869]}},{"id":7240,"type":"Feature","properties":{"name":"Poynette","state":"WI","type":1,"confirmed":2,"sign":0,"ordinance":0,"showcase":0},"geometry":{"type":"Point","coordinates":[-89.4029,43.3903]}},{"id":7239,"type":"Feature","properties":{"name":"Port Edwards","state":"WI","type":1,"confirmed":2,"sign":0,"ordinance":0,"showcase":0},"geometry":{"type":"Point","coordinates":[-89.8654,44.3508]}},{"id":7238,"type":"Feature","properties":{"name":"Phillips","state":"WI","type":1,"confirmed":2,"sign":0,"ordinance":0,"showcase":0},"geometry":{"type":"Point","coordinates":[-90.3978,45.691]}},{"id":7237,"type":"Feature","properties":{"name":"Pardeeville","state":"WI","type":1,"confirmed":2,"sign":0,"ordinance":0,"showcase":0},"geometry":{"type":"Point","coordinates":[-89.3001,43.5378]}},{"id":7236,"type":"Feature","properties":{"name":"Palmyra (town)","state":"WI","type":1,"confirmed":2,"sign":0,"ordinance":0,"showcase":0},"geometry":{"type":"Point","coordinates":[-88.5862,42.8778]}},{"id":7235,"type":"Feature","properties":{"name":"Palmyra (village)","state":"WI","type":1,"confirmed":2,"sign":0,"ordinance":0,"showcase":0},"geometry":{"type":"Point","coordinates":[-88.590033,42.871356]}},{"id":7234,"type":"Feature","properties":{"name":"Owen","state":"WI","type":1,"confirmed":2,"sign":0,"ordinance":0,"showcase":0},"geometry":{"type":"Point","coordinates":[-90.5643,44.9486]}},{"id":7233,"type":"Feature","properties":{"name":"Osseo","state":"WI","type":1,"confirmed":2,"sign":0,"ordinance":0,"showcase":0},"geometry":{"type":"Point","coordinates":[-91.2274,44.5722]}},{"id":7232,"type":"Feature","properties":{"name":"Oostburg","state":"WI","type":1,"confirmed":2,"sign":0,"ordinance":0,"showcase":0},"geometry":{"type":"Point","coordinates":[-87.7945,43.6228]}},{"id":7231,"type":"Feature","properties":{"name":"North Hudson","state":"WI","type":1,"confirmed":2,"sign":0,"ordinance":0,"showcase":0},"geometry":{"type":"Point","coordinates":[-92.7569,44.993]}},{"id":7230,"type":"Feature","properties":{"name":"Niagara","state":"WI","type":1,"confirmed":2,"sign":0,"ordinance":0,"showcase":0},"geometry":{"type":"Point","coordinates":[-87.9948,45.7713]}},{"id":7229,"type":"Feature","properties":{"name":"New Lisbon","state":"WI","type":1,"confirmed":2,"sign":0,"ordinance":0,"showcase":0},"geometry":{"type":"Point","coordinates":[-90.1654,43.8791]}},{"id":7228,"type":"Feature","properties":{"name":"New Glarus","state":"WI","type":1,"confirmed":2,"sign":0,"ordinance":0,"showcase":0},"geometry":{"type":"Point","coordinates":[-89.6339,42.8145]}},{"id":7227,"type":"Feature","properties":{"name":"Montreal","state":"WI","type":1,"confirmed":2,"sign":0,"ordinance":0,"showcase":0},"geometry":{"type":"Point","coordinates":[-90.246,46.428]}},{"id":7226,"type":"Feature","properties":{"name":"Montello","state":"WI","type":1,"confirmed":2,"sign":0,"ordinance":0,"showcase":0},"geometry":{"type":"Point","coordinates":[-89.3198,43.7914]}},{"id":7225,"type":"Feature","properties":{"name":"Mellen","state":"WI","type":1,"confirmed":2,"sign":0,"ordinance":0,"showcase":0},"geometry":{"type":"Point","coordinates":[-90.6607,46.3257]}},{"id":7224,"type":"Feature","properties":{"name":"Mazomanie","state":"WI","type":1,"confirmed":2,"sign":0,"ordinance":0,"showcase":0},"geometry":{"type":"Point","coordinates":[-89.796,43.1754]}},{"id":7223,"type":"Feature","properties":{"name":"Markesan","state":"WI","type":1,"confirmed":2,"sign":0,"ordinance":0,"showcase":0},"geometry":{"type":"Point","coordinates":[-88.9901,43.7073]}},{"id":7222,"type":"Feature","properties":{"name":"Marion","state":"WI","type":1,"confirmed":2,"sign":0,"ordinance":0,"showcase":0},"geometry":{"type":"Point","coordinates":[-88.8893,44.6708]}},{"id":7221,"type":"Feature","properties":{"name":"Marathon","state":"WI","type":1,"confirmed":2,"sign":0,"ordinance":0,"showcase":0},"geometry":{"type":"Point","coordinates":[-89.8243,44.9216]}},{"id":7220,"type":"Feature","properties":{"name":"Manawa","state":"WI","type":1,"confirmed":2,"sign":0,"ordinance":0,"showcase":0},"geometry":{"type":"Point","coordinates":[-88.9198,44.4644]}},{"id":7219,"type":"Feature","properties":{"name":"Loyal","state":"WI","type":1,"confirmed":2,"sign":0,"ordinance":0,"showcase":0},"geometry":{"type":"Point","coordinates":[-90.496,44.7369]}},{"id":7218,"type":"Feature","properties":{"name":"Lodi","state":"WI","type":1,"confirmed":2,"sign":0,"ordinance":0,"showcase":0},"geometry":{"type":"Point","coordinates":[-89.5265,43.3139]}},{"id":7217,"type":"Feature","properties":{"name":"Lannon","state":"WI","type":1,"confirmed":2,"sign":0,"ordinance":0,"showcase":0},"geometry":{"type":"Point","coordinates":[-88.1662,43.1461]}},{"id":7216,"type":"Feature","properties":{"name":"Kohler","state":"WI","type":1,"confirmed":2,"sign":0,"ordinance":0,"showcase":0},"geometry":{"type":"Point","coordinates":[-87.7818,43.7392]}},{"id":7215,"type":"Feature","properties":{"name":"Kewaskum","state":"WI","type":1,"confirmed":2,"sign":0,"ordinance":0,"showcase":0},"geometry":{"type":"Point","coordinates":[-88.2279,43.5214]}},{"id":7214,"type":"Feature","properties":{"name":"Juneau","state":"WI","type":1,"confirmed":2,"sign":0,"ordinance":0,"showcase":0},"geometry":{"type":"Point","coordinates":[-88.7051,43.4056]}},{"id":7213,"type":"Feature","properties":{"name":"Hortonville","state":"WI","type":1,"confirmed":2,"sign":0,"ordinance":0,"showcase":0},"geometry":{"type":"Point","coordinates":[-88.6382,44.3347]}},{"id":7212,"type":"Feature","properties":{"name":"Hillsboro","state":"WI","type":1,"confirmed":2,"sign":0,"ordinance":0,"showcase":0},"geometry":{"type":"Point","coordinates":[-90.344,43.6522]}},{"id":7211,"type":"Feature","properties":{"name":"Hayward","state":"WI","type":1,"confirmed":2,"sign":0,"ordinance":0,"showcase":0},"geometry":{"type":"Point","coordinates":[-91.4849,46.013]}},{"id":7210,"type":"Feature","properties":{"name":"Greenwood","state":"WI","type":1,"confirmed":2,"sign":0,"ordinance":0,"showcase":0},"geometry":{"type":"Point","coordinates":[-90.5993,44.7702]}},{"id":7209,"type":"Feature","properties":{"name":"Gillett","state":"WI","type":1,"confirmed":2,"sign":0,"ordinance":0,"showcase":0},"geometry":{"type":"Point","coordinates":[-88.3073,44.89]}},{"id":7208,"type":"Feature","properties":{"name":"Genoa City","state":"WI","type":1,"confirmed":2,"sign":0,"ordinance":0,"showcase":0},"geometry":{"type":"Point","coordinates":[-88.3281,42.4984]}},{"id":7207,"type":"Feature","properties":{"name":"Galesville","state":"WI","type":1,"confirmed":2,"sign":0,"ordinance":0,"showcase":0},"geometry":{"type":"Point","coordinates":[-91.349,44.0816]}},{"id":7206,"type":"Feature","properties":{"name":"Fontana on Geneva Lake","state":"WI","type":1,"confirmed":2,"sign":0,"ordinance":0,"showcase":0},"geometry":{"type":"Point","coordinates":[-88.5751,42.5514]}},{"id":7205,"type":"Feature","properties":{"name":"Fennimore","state":"WI","type":1,"confirmed":2,"sign":0,"ordinance":0,"showcase":0},"geometry":{"type":"Point","coordinates":[-90.6556,42.9836]}},{"id":7204,"type":"Feature","properties":{"name":"Elroy","state":"WI","type":1,"confirmed":2,"sign":0,"ordinance":0,"showcase":0},"geometry":{"type":"Point","coordinates":[-90.2724,43.7408]}},{"id":7203,"type":"Feature","properties":{"name":"Ellsworth","state":"WI","type":1,"confirmed":2,"sign":0,"ordinance":0,"showcase":0},"geometry":{"type":"Point","coordinates":[-92.4874,44.7322]}},{"id":7202,"type":"Feature","properties":{"name":"East Troy","state":"WI","type":1,"confirmed":2,"sign":0,"ordinance":0,"showcase":0},"geometry":{"type":"Point","coordinates":[-88.4054,42.7852]}},{"id":7201,"type":"Feature","properties":{"name":"Eagle River","state":"WI","type":1,"confirmed":2,"sign":0,"ordinance":0,"showcase":0},"geometry":{"type":"Point","coordinates":[-89.2443,45.9172]}},{"id":7200,"type":"Feature","properties":{"name":"Durand","state":"WI","type":1,"confirmed":2,"sign":0,"ordinance":0,"showcase":0},"geometry":{"type":"Point","coordinates":[-91.9657,44.6264]}},{"id":7199,"type":"Feature","properties":{"name":"Denmark","state":"WI","type":1,"confirmed":2,"sign":0,"ordinance":0,"showcase":0},"geometry":{"type":"Point","coordinates":[-87.827,44.3479]}},{"id":7198,"type":"Feature","properties":{"name":"Delavan Lake","state":"WI","type":1,"confirmed":2,"sign":0,"ordinance":0,"showcase":0},"geometry":{"type":"Point","coordinates":[-88.6326,42.5842]}},{"id":7197,"type":"Feature","properties":{"name":"De Forest","state":"WI","type":1,"confirmed":2,"sign":0,"ordinance":0,"showcase":0},"geometry":{"type":"Point","coordinates":[-88.3606952,42.5384847]}},{"id":7196,"type":"Feature","properties":{"name":"Darlington","state":"WI","type":1,"confirmed":2,"sign":0,"ordinance":0,"showcase":0},"geometry":{"type":"Point","coordinates":[-90.1176,42.6831]}},{"id":7195,"type":"Feature","properties":{"name":"Cumberland","state":"WI","type":1,"confirmed":2,"sign":0,"ordinance":0,"showcase":0},"geometry":{"type":"Point","coordinates":[-92.0213,45.5327]}},{"id":7194,"type":"Feature","properties":{"name":"Cuba City","state":"WI","type":1,"confirmed":2,"sign":0,"ordinance":0,"showcase":0},"geometry":{"type":"Point","coordinates":[-90.4299,42.6056]}},{"id":7193,"type":"Feature","properties":{"name":"Cross Plains","state":"WI","type":1,"confirmed":2,"sign":0,"ordinance":0,"showcase":0},"geometry":{"type":"Point","coordinates":[-89.6407,43.1125]}},{"id":7192,"type":"Feature","properties":{"name":"Crandon","state":"WI","type":1,"confirmed":2,"sign":0,"ordinance":0,"showcase":0},"geometry":{"type":"Point","coordinates":[-88.9029,45.5719]}},{"id":7191,"type":"Feature","properties":{"name":"Cottage Grove (town)","state":"WI","type":1,"confirmed":2,"sign":0,"ordinance":0,"showcase":0},"geometry":{"type":"Point","coordinates":[-89.199549,43.070258]}},{"id":7190,"type":"Feature","properties":{"name":"Cottage Grove","state":"WI","type":1,"confirmed":2,"sign":0,"ordinance":0,"showcase":0},"geometry":{"type":"Point","coordinates":[-89.1989,43.0786]}},{"id":7189,"type":"Feature","properties":{"name":"Clinton","state":"WI","type":1,"confirmed":2,"sign":0,"ordinance":0,"showcase":0},"geometry":{"type":"Point","coordinates":[-88.8651,42.5578]}},{"id":7188,"type":"Feature","properties":{"name":"Cornell","state":"WI","type":1,"confirmed":2,"sign":0,"ordinance":0,"showcase":0},"geometry":{"type":"Point","coordinates":[-91.1493,45.1672]}},{"id":7187,"type":"Feature","properties":{"name":"Colby","state":"WI","type":1,"confirmed":2,"sign":0,"ordinance":0,"showcase":0},"geometry":{"type":"Point","coordinates":[-90.3157,44.91]}},{"id":7186,"type":"Feature","properties":{"name":"Cedar Grove","state":"WI","type":1,"confirmed":2,"sign":0,"ordinance":0,"showcase":0},"geometry":{"type":"Point","coordinates":[-87.8234,43.5697]}},{"id":7185,"type":"Feature","properties":{"name":"Cassville","state":"WI","type":1,"confirmed":2,"sign":0,"ordinance":0,"showcase":0},"geometry":{"type":"Point","coordinates":[-90.9907,42.7144]}},{"id":7184,"type":"Feature","properties":{"name":"Campbellsport","state":"WI","type":1,"confirmed":2,"sign":0,"ordinance":0,"showcase":0},"geometry":{"type":"Point","coordinates":[-88.279,43.5978]}},{"id":7183,"type":"Feature","properties":{"name":"Butler","state":"WI","type":1,"confirmed":2,"sign":0,"ordinance":0,"showcase":0},"geometry":{"type":"Point","coordinates":[-88.0695,43.1058]}},{"id":7182,"type":"Feature","properties":{"name":"Barton","state":"WI","type":1,"confirmed":2,"sign":0,"ordinance":0,"showcase":0},"geometry":{"type":"Point","coordinates":[-91.8491,45.4013]}},{"id":7181,"type":"Feature","properties":{"name":"Baldwin","state":"WI","type":1,"confirmed":2,"sign":0,"ordinance":0,"showcase":0},"geometry":{"type":"Point","coordinates":[-92.3744,44.9666]}},{"id":7180,"type":"Feature","properties":{"name":"Augusta","state":"WI","type":1,"confirmed":2,"sign":0,"ordinance":0,"showcase":0},"geometry":{"type":"Point","coordinates":[-91.1199,44.6802]}},{"id":7179,"type":"Feature","properties":{"name":"Arcadia","state":"WI","type":1,"confirmed":2,"sign":0,"ordinance":0,"showcase":0},"geometry":{"type":"Point","coordinates":[-91.5015,44.2527]}},{"id":7178,"type":"Feature","properties":{"name":"Amery","state":"WI","type":1,"confirmed":2,"sign":0,"ordinance":0,"showcase":0},"geometry":{"type":"Point","coordinates":[-92.3621,45.3069]}},{"id":7177,"type":"Feature","properties":{"name":"Alma","state":"WI","type":1,"confirmed":2,"sign":0,"ordinance":0,"showcase":0},"geometry":{"type":"Point","coordinates":[-91.9149,44.32]}},{"id":7176,"type":"Feature","properties":{"name":"Adams","state":"WI","type":1,"confirmed":2,"sign":0,"ordinance":0,"showcase":0},"geometry":{"type":"Point","coordinates":[-89.7836,43.9462]}},{"id":7175,"type":"Feature","properties":{"name":"Abbotsford","state":"WI","type":1,"confirmed":2,"sign":0,"ordinance":0,"showcase":0},"geometry":{"type":"Point","coordinates":[-90.316,44.9464]}},{"id":7174,"type":"Feature","properties":{"name":"Bayside","state":"WI","type":1,"confirmed":2,"sign":0,"ordinance":0,"showcase":0},"geometry":{"type":"Point","coordinates":[-87.9056,43.1832]}},{"id":7173,"type":"Feature","properties":{"name":"Portage","state":"WI","type":1,"confirmed":2,"sign":0,"ordinance":0,"showcase":0},"geometry":{"type":"Point","coordinates":[-89.4613,43.5395]}},{"id":7172,"type":"Feature","properties":{"name":"Onalaska","state":"WI","type":1,"confirmed":2,"sign":0,"ordinance":0,"showcase":0},"geometry":{"type":"Point","coordinates":[-91.2344,43.8831]}},{"id":7171,"type":"Feature","properties":{"name":"Menomonee Falls","state":"WI","type":1,"confirmed":2,"sign":0,"ordinance":0,"showcase":0},"geometry":{"type":"Point","coordinates":[-88.1167,43.1789]}},{"id":7170,"type":"Feature","properties":{"name":"Monona","state":"WI","type":1,"confirmed":2,"sign":0,"ordinance":0,"showcase":0},"geometry":{"type":"Point","coordinates":[-89.334,43.0622]}},{"id":7169,"type":"Feature","properties":{"name":"Grand Rapids","state":"WI","type":1,"confirmed":2,"sign":0,"ordinance":0,"showcase":0},"geometry":{"type":"Point","coordinates":[-89.7665,44.3775]}},{"id":7168,"type":"Feature","properties":{"name":"Glendale","state":"WI","type":1,"confirmed":2,"sign":0,"ordinance":0,"showcase":0},"geometry":{"type":"Point","coordinates":[-87.9356,43.1353]}},{"id":7167,"type":"Feature","properties":{"name":"St. Francis","state":"WI","type":1,"confirmed":2,"sign":0,"ordinance":0,"showcase":0},"geometry":{"type":"Point","coordinates":[-87.8776,42.9675]}},{"id":7166,"type":"Feature","properties":{"name":"New Berlin","state":"WI","type":1,"confirmed":2,"sign":0,"ordinance":0,"showcase":0},"geometry":{"type":"Point","coordinates":[-88.109,42.9765]}},{"id":7165,"type":"Feature","properties":{"name":"Brown Deer","state":"WI","type":1,"confirmed":2,"sign":0,"ordinance":0,"showcase":0},"geometry":{"type":"Point","coordinates":[-87.9643,43.1643]}},{"id":7164,"type":"Feature","properties":{"name":"Brookfield","state":"WI","type":1,"confirmed":2,"sign":0,"ordinance":0,"showcase":0},"geometry":{"type":"Point","coordinates":[-88.1065,43.0606]}},{"id":7163,"type":"Feature","properties":{"name":"Sparta","state":"WI","type":1,"confirmed":2,"sign":0,"ordinance":0,"showcase":0},"geometry":{"type":"Point","coordinates":[-90.8129,43.9441]}},{"id":7162,"type":"Feature","properties":{"name":"Greenfield","state":"WI","type":1,"confirmed":2,"sign":0,"ordinance":0,"showcase":0},"geometry":{"type":"Point","coordinates":[-88.0126,42.9614]}},{"id":7161,"type":"Feature","properties":{"name":"La Crosse","state":"WI","type":1,"confirmed":2,"sign":0,"ordinance":0,"showcase":1},"geometry":{"type":"Point","coordinates":[-91.2396,43.8014]}},{"id":7160,"type":"Feature","properties":{"name":"Taylor","state":"MI","type":1,"confirmed":0,"sign":0,"ordinance":0,"showcase":0},"geometry":{"type":"Point","coordinates":[-83.2697,42.2409]}},{"id":7159,"type":"Feature","properties":{"name":"Allen Park","state":"MI","type":1,"confirmed":0,"sign":0,"ordinance":0,"showcase":0},"geometry":{"type":"Point","coordinates":[-83.211,42.2575]}},{"id":7158,"type":"Feature","properties":{"name":"Burlington","state":"CT","type":1,"confirmed":2,"sign":0,"ordinance":0,"showcase":0},"geometry":{"type":"Point","coordinates":[-72.9645,41.7693]}},{"id":7157,"type":"Feature","properties":{"name":"Weston","state":"CT","type":0,"confirmed":0,"sign":0,"ordinance":0,"showcase":0},"geometry":{"type":"Point","coordinates":[-73.3805,41.2012]}},{"id":7156,"type":"Feature","properties":{"name":"Quincy","state":"MA","type":1,"confirmed":2,"sign":0,"ordinance":0,"showcase":0},"geometry":{"type":"Point","coordinates":[-71.0023,42.2529]}},{"id":7155,"type":"Feature","properties":{"name":"East Haven","state":"CT","type":1,"confirmed":2,"sign":0,"ordinance":0,"showcase":0},"geometry":{"type":"Point","coordinates":[-72.8684,41.2762]}},{"id":7154,"type":"Feature","properties":{"name":"Plainfield","state":"CT","type":1,"confirmed":2,"sign":0,"ordinance":0,"showcase":0},"geometry":{"type":"Point","coordinates":[-71.9151,41.6765]}},{"id":7153,"type":"Feature","properties":{"name":"Roxana","state":"IL","type":1,"confirmed":2,"sign":0,"ordinance":0,"showcase":0},"geometry":{"type":"Point","coordinates":[-90.0769,38.8483]}},{"id":7152,"type":"Feature","properties":{"name":"Chetek","state":"WI","type":1,"confirmed":2,"sign":0,"ordinance":0,"showcase":0},"geometry":{"type":"Point","coordinates":[-91.651,45.3141]}},{"id":7151,"type":"Feature","properties":{"name":"Baraboo","state":"WI","type":1,"confirmed":2,"sign":0,"ordinance":0,"showcase":0},"geometry":{"type":"Point","coordinates":[-89.7438,43.4704]}},{"id":7150,"type":"Feature","properties":{"name":"River Hills","state":"WI","type":1,"confirmed":2,"sign":0,"ordinance":0,"showcase":0},"geometry":{"type":"Point","coordinates":[-87.9243,43.1742]}},{"id":7149,"type":"Feature","properties":{"name":"Maple Bluff","state":"WI","type":1,"confirmed":2,"sign":0,"ordinance":0,"showcase":0},"geometry":{"type":"Point","coordinates":[-89.3796,43.1183]}},{"id":7148,"type":"Feature","properties":{"name":"Milton","state":"WV","type":1,"confirmed":2,"sign":0,"ordinance":0,"showcase":0},"geometry":{"type":"Point","coordinates":[-82.1324,38.4345]}},{"id":7147,"type":"Feature","properties":{"name":"Everett","state":"PA","type":1,"confirmed":2,"sign":0,"ordinance":0,"showcase":0},"geometry":{"type":"Point","coordinates":[-78.3733,40.0115]}},{"id":7146,"type":"Feature","properties":{"name":"Elizabethtown","state":"PA","type":1,"confirmed":4,"sign":0,"ordinance":0,"showcase":1},"geometry":{"type":"Point","coordinates":[-76.6043,40.1534]}},{"id":7145,"type":"Feature","properties":{"name":"Coatesville","state":"PA","type":1,"confirmed":2,"sign":0,"ordinance":0,"showcase":0},"geometry":{"type":"Point","coordinates":[-75.8238,39.9832]}},{"id":7144,"type":"Feature","properties":{"name":"Stoneboro","state":"PA","type":1,"confirmed":2,"sign":0,"ordinance":0,"showcase":0},"geometry":{"type":"Point","coordinates":[-80.1051,41.3392]}},{"id":7143,"type":"Feature","properties":{"name":"Bellwood","state":"PA","type":1,"confirmed":2,"sign":0,"ordinance":0,"showcase":0},"geometry":{"type":"Point","coordinates":[-78.3327,40.6006]}},{"id":7142,"type":"Feature","properties":{"name":"Mechanicsburg","state":"PA","type":1,"confirmed":2,"sign":0,"ordinance":0,"showcase":0},"geometry":{"type":"Point","coordinates":[-77.0047,40.2102]}},{"id":7141,"type":"Feature","properties":{"name":"Johnstown","state":"PA","type":1,"confirmed":2,"sign":0,"ordinance":0,"showcase":0},"geometry":{"type":"Point","coordinates":[-78.922,40.3267]}},{"id":7140,"type":"Feature","properties":{"name":"Susquehanna","state":"PA","type":1,"confirmed":2,"sign":0,"ordinance":0,"showcase":0},"geometry":{"type":"Point","coordinates":[-75.5996,41.9434]}},{"id":7139,"type":"Feature","properties":{"name":"Manheim","state":"PA","type":1,"confirmed":2,"sign":0,"ordinance":0,"showcase":0},"geometry":{"type":"Point","coordinates":[-76.3952,40.1637]}},{"id":7138,"type":"Feature","properties":{"name":"Boyertown","state":"PA","type":1,"confirmed":2,"sign":0,"ordinance":0,"showcase":0},"geometry":{"type":"Point","coordinates":[-75.6374,40.3337]}},{"id":7137,"type":"Feature","properties":{"name":"Locust Gap","state":"PA","type":1,"confirmed":2,"sign":0,"ordinance":0,"showcase":0},"geometry":{"type":"Point","coordinates":[-76.4413,40.7718]}},{"id":7136,"type":"Feature","properties":{"name":"Levittown","state":"PA","type":1,"confirmed":2,"sign":0,"ordinance":0,"showcase":1},"geometry":{"type":"Point","coordinates":[-74.8288,40.1551]}},{"id":7135,"type":"Feature","properties":{"name":"Bradford","state":"PA","type":1,"confirmed":2,"sign":0,"ordinance":0,"showcase":0},"geometry":{"type":"Point","coordinates":[-78.6439,41.9559]}},{"id":7134,"type":"Feature","properties":{"name":"Royersford","state":"PA","type":1,"confirmed":2,"sign":0,"ordinance":0,"showcase":0},"geometry":{"type":"Point","coordinates":[-75.538,40.1843]}},{"id":7133,"type":"Feature","properties":{"name":"Shenandoah","state":"PA","type":1,"confirmed":3,"sign":0,"ordinance":0,"showcase":0},"geometry":{"type":"Point","coordinates":[-76.2008,40.8204]}},{"id":7132,"type":"Feature","properties":{"name":"Johnsburg","state":"NY","type":1,"confirmed":2,"sign":0,"ordinance":0,"showcase":0},"geometry":{"type":"Point","coordinates":[-73.9612,43.6184]}},{"id":7131,"type":"Feature","properties":{"name":"Penfield","state":"NY","type":1,"confirmed":2,"sign":0,"ordinance":0,"showcase":0},"geometry":{"type":"Point","coordinates":[-77.4756,43.1303]}},{"id":7130,"type":"Feature","properties":{"name":"Irondequoit","state":"NY","type":1,"confirmed":2,"sign":0,"ordinance":0,"showcase":0},"geometry":{"type":"Point","coordinates":[-77.57,43.23]}},{"id":7129,"type":"Feature","properties":{"name":"Pleasantville","state":"NY","type":1,"confirmed":3,"sign":0,"ordinance":0,"showcase":0},"geometry":{"type":"Point","coordinates":[-73.7926,41.1329]}},{"id":7128,"type":"Feature","properties":{"name":"Green Island","state":"NY","type":1,"confirmed":2,"sign":0,"ordinance":0,"showcase":0},"geometry":{"type":"Point","coordinates":[-73.6915,42.7442]}},{"id":7127,"type":"Feature","properties":{"name":"Cohoes","state":"NY","type":1,"confirmed":1,"sign":0,"ordinance":0,"showcase":0},"geometry":{"type":"Point","coordinates":[-73.7001,42.7742]}},{"id":7126,"type":"Feature","properties":{"name":"Folcroft","state":"PA","type":1,"confirmed":3,"sign":0,"ordinance":0,"showcase":0},"geometry":{"type":"Point","coordinates":[-75.2838,39.8909]}},{"id":7125,"type":"Feature","properties":{"name":"Shannondale","state":"WV","type":3,"confirmed":2,"sign":0,"ordinance":0,"showcase":0},"geometry":{"type":"Point","coordinates":[-77.8075,39.217]}},{"id":7124,"type":"Feature","properties":{"name":"Lincoln County","state":"WV","type":4,"confirmed":2,"sign":0,"ordinance":0,"showcase":0},"geometry":{"type":"Point","coordinates":[-82.07,38.18]}},{"id":7123,"type":"Feature","properties":{"name":"Belington","state":"WV","type":1,"confirmed":2,"sign":3,"ordinance":0,"showcase":0},"geometry":{"type":"Point","coordinates":[-79.9356,39.0251]}},{"id":7122,"type":"Feature","properties":{"name":"St. Marys","state":"WV","type":1,"confirmed":2,"sign":0,"ordinance":0,"showcase":0},"geometry":{"type":"Point","coordinates":[-81.2051,39.3917]}},{"id":7121,"type":"Feature","properties":{"name":"Taft","state":"OK","type":1,"confirmed":2,"sign":4,"ordinance":0,"showcase":0},"geometry":{"type":"Point","coordinates":[-95.581511,35.748021]}},{"id":7120,"type":"Feature","properties":{"name":"Stroud","state":"OK","type":1,"confirmed":4,"sign":1,"ordinance":0,"showcase":0},"geometry":{"type":"Point","coordinates":[-96.6581,35.7487]}},{"id":7119,"type":"Feature","properties":{"name":"Sidell","state":"IL","type":1,"confirmed":2,"sign":0,"ordinance":0,"showcase":0},"geometry":{"type":"Point","coordinates":[-87.8211,39.9098]}},{"id":7118,"type":"Feature","properties":{"name":"Everman","state":"TX","type":1,"confirmed":2,"sign":3,"ordinance":0,"showcase":0},"geometry":{"type":"Point","coordinates":[-97.2892,32.631]}},{"id":7117,"type":"Feature","properties":{"name":"Arkoma","state":"OK","type":1,"confirmed":2,"sign":3,"ordinance":0,"showcase":0},"geometry":{"type":"Point","coordinates":[-94.4341,35.3545]}},{"id":7116,"type":"Feature","properties":{"name":"Coffey County","state":"KS","type":4,"confirmed":2,"sign":0,"ordinance":0,"showcase":0},"geometry":{"type":"Point","coordinates":[-95.75,38.19]}},{"id":7115,"type":"Feature","properties":{"name":"Pratt County","state":"KS","type":4,"confirmed":2,"sign":0,"ordinance":0,"showcase":0},"geometry":{"type":"Point","coordinates":[-98.74,37.65667]}},{"id":7114,"type":"Feature","properties":{"name":"Chase County","state":"KS","type":4,"confirmed":2,"sign":0,"ordinance":0,"showcase":0},"geometry":{"type":"Point","coordinates":[-96.5833,38.3]}},{"id":7113,"type":"Feature","properties":{"name":"Sumner County","state":"KS","type":4,"confirmed":2,"sign":0,"ordinance":0,"showcase":0},"geometry":{"type":"Point","coordinates":[-97.4833,37.2333]}},{"id":7112,"type":"Feature","properties":{"name":"Greenwood County","state":"KS","type":4,"confirmed":2,"sign":0,"ordinance":0,"showcase":0},"geometry":{"type":"Point","coordinates":[-96.2667,37.8667]}},{"id":7111,"type":"Feature","properties":{"name":"Phillips County","state":"KS","type":4,"confirmed":2,"sign":0,"ordinance":0,"showcase":0},"geometry":{"type":"Point","coordinates":[-99.35,39.8]}},{"id":7110,"type":"Feature","properties":{"name":"Dickinson County","state":"KS","type":4,"confirmed":2,"sign":0,"ordinance":0,"showcase":0},"geometry":{"type":"Point","coordinates":[-97.1667,38.8833]}},{"id":7109,"type":"Feature","properties":{"name":"Hodgeman County","state":"KS","type":4,"confirmed":2,"sign":0,"ordinance":0,"showcase":0},"geometry":{"type":"Point","coordinates":[-100.17139,38.04389]}},{"id":7108,"type":"Feature","properties":{"name":"Pawnee County","state":"KS","type":4,"confirmed":2,"sign":0,"ordinance":0,"showcase":0},"geometry":{"type":"Point","coordinates":[-99.2,38.15]}},{"id":7107,"type":"Feature","properties":{"name":"Ellsworth County","state":"KS","type":4,"confirmed":2,"sign":0,"ordinance":0,"showcase":0},"geometry":{"type":"Point","coordinates":[-98.21278,38.65444]}},{"id":7106,"type":"Feature","properties":{"name":"Rice County","state":"KS","type":4,"confirmed":2,"sign":0,"ordinance":0,"showcase":0},"geometry":{"type":"Point","coordinates":[-98.2,38.35]}},{"id":7105,"type":"Feature","properties":{"name":"Osborne County","state":"KS","type":4,"confirmed":2,"sign":0,"ordinance":0,"showcase":0},"geometry":{"type":"Point","coordinates":[-98.665,39.5325]}},{"id":7104,"type":"Feature","properties":{"name":"Yorktown","state":"IN","type":1,"confirmed":3,"sign":0,"ordinance":0,"showcase":0},"geometry":{"type":"Point","coordinates":[-85.4941,40.1737]}},{"id":7103,"type":"Feature","properties":{"name":"Worthington","state":"IN","type":1,"confirmed":3,"sign":0,"ordinance":0,"showcase":0},"geometry":{"type":"Point","coordinates":[-86.9795,39.125]}},{"id":7102,"type":"Feature","properties":{"name":"Woodburn","state":"IN","type":1,"confirmed":3,"sign":0,"ordinance":0,"showcase":0},"geometry":{"type":"Point","coordinates":[-84.8533,41.1253]}},{"id":7101,"type":"Feature","properties":{"name":"Wolcott","state":"IN","type":1,"confirmed":3,"sign":0,"ordinance":0,"showcase":0},"geometry":{"type":"Point","coordinates":[-87.0417,40.7581]}},{"id":7100,"type":"Feature","properties":{"name":"Winslow","state":"IN","type":1,"confirmed":3,"sign":0,"ordinance":0,"showcase":0},"geometry":{"type":"Point","coordinates":[-87.2128,38.3823]}},{"id":7099,"type":"Feature","properties":{"name":"Windfall City","state":"IN","type":1,"confirmed":3,"sign":0,"ordinance":0,"showcase":0},"geometry":{"type":"Point","coordinates":[-85.9564,40.3631]}},{"id":7098,"type":"Feature","properties":{"name":"Winamac","state":"IN","type":1,"confirmed":3,"sign":0,"ordinance":0,"showcase":0},"geometry":{"type":"Point","coordinates":[-86.6031,41.0514]}},{"id":7097,"type":"Feature","properties":{"name":"Williamsport","state":"IN","type":1,"confirmed":3,"sign":0,"ordinance":0,"showcase":0},"geometry":{"type":"Point","coordinates":[-87.2939,40.2884]}},{"id":7096,"type":"Feature","properties":{"name":"Whiteland","state":"IN","type":1,"confirmed":3,"sign":0,"ordinance":0,"showcase":0},"geometry":{"type":"Point","coordinates":[-86.0797,39.55]}},{"id":7095,"type":"Feature","properties":{"name":"West Lafayette","state":"IN","type":1,"confirmed":3,"sign":0,"ordinance":0,"showcase":0},"geometry":{"type":"Point","coordinates":[-86.9081,40.4259]}},{"id":7094,"type":"Feature","properties":{"name":"Waterloo","state":"IN","type":1,"confirmed":3,"sign":0,"ordinance":0,"showcase":0},"geometry":{"type":"Point","coordinates":[-85.02,41.432]}},{"id":7093,"type":"Feature","properties":{"name":"Walton","state":"IN","type":1,"confirmed":3,"sign":0,"ordinance":0,"showcase":0},"geometry":{"type":"Point","coordinates":[-86.2419,40.6609]}},{"id":7092,"type":"Feature","properties":{"name":"Walkerton","state":"IN","type":1,"confirmed":3,"sign":0,"ordinance":0,"showcase":0},"geometry":{"type":"Point","coordinates":[-86.4831,41.4667]}},{"id":7091,"type":"Feature","properties":{"name":"Versailles","state":"IN","type":1,"confirmed":3,"sign":0,"ordinance":0,"showcase":0},"geometry":{"type":"Point","coordinates":[-85.2519,39.072]}},{"id":7090,"type":"Feature","properties":{"name":"Veedersburg","state":"IN","type":1,"confirmed":3,"sign":0,"ordinance":0,"showcase":0},"geometry":{"type":"Point","coordinates":[-87.2625,40.1131]}},{"id":7089,"type":"Feature","properties":{"name":"Van Buren","state":"IN","type":1,"confirmed":3,"sign":0,"ordinance":0,"showcase":0},"geometry":{"type":"Point","coordinates":[-85.5047,40.6173]}},{"id":7088,"type":"Feature","properties":{"name":"Tri-Lakes","state":"IN","type":3,"confirmed":3,"sign":0,"ordinance":0,"showcase":0},"geometry":{"type":"Point","coordinates":[-85.443,41.2504]}},{"id":7087,"type":"Feature","properties":{"name":"Trail Creek","state":"IN","type":1,"confirmed":3,"sign":0,"ordinance":0,"showcase":0},"geometry":{"type":"Point","coordinates":[-86.8592,41.6984]}},{"id":7086,"type":"Feature","properties":{"name":"Thorntown","state":"IN","type":1,"confirmed":3,"sign":0,"ordinance":0,"showcase":0},"geometry":{"type":"Point","coordinates":[-86.6067,40.1295]}},{"id":7085,"type":"Feature","properties":{"name":"Syracuse","state":"IN","type":1,"confirmed":3,"sign":0,"ordinance":0,"showcase":0},"geometry":{"type":"Point","coordinates":[-85.7525,41.4278]}},{"id":7084,"type":"Feature","properties":{"name":"St. John","state":"IN","type":1,"confirmed":3,"sign":0,"ordinance":0,"showcase":0},"geometry":{"type":"Point","coordinates":[-87.47,41.45]}},{"id":7083,"type":"Feature","properties":{"name":"Shoals","state":"IN","type":1,"confirmed":3,"sign":0,"ordinance":0,"showcase":0},"geometry":{"type":"Point","coordinates":[-86.7911,38.6664]}},{"id":7082,"type":"Feature","properties":{"name":"Shirley","state":"IN","type":1,"confirmed":3,"sign":0,"ordinance":0,"showcase":0},"geometry":{"type":"Point","coordinates":[-85.577,39.8917]}},{"id":7081,"type":"Feature","properties":{"name":"Shelburn","state":"IN","type":1,"confirmed":3,"sign":0,"ordinance":0,"showcase":0},"geometry":{"type":"Point","coordinates":[-87.3936,39.1784]}},{"id":7080,"type":"Feature","properties":{"name":"Seelyville","state":"IN","type":1,"confirmed":3,"sign":0,"ordinance":0,"showcase":0},"geometry":{"type":"Point","coordinates":[-87.2672,39.492]}},{"id":7079,"type":"Feature","properties":{"name":"Schererville","state":"IN","type":1,"confirmed":3,"sign":0,"ordinance":0,"showcase":0},"geometry":{"type":"Point","coordinates":[-87.4548,41.4789]}},{"id":7078,"type":"Feature","properties":{"name":"Russiaville","state":"IN","type":1,"confirmed":3,"sign":0,"ordinance":0,"showcase":0},"geometry":{"type":"Point","coordinates":[-86.2714,40.4175]}},{"id":7077,"type":"Feature","properties":{"name":"Royal Center","state":"IN","type":1,"confirmed":3,"sign":0,"ordinance":0,"showcase":0},"geometry":{"type":"Point","coordinates":[-86.4997,40.8645]}},{"id":7076,"type":"Feature","properties":{"name":"Rossville","state":"IN","type":1,"confirmed":3,"sign":0,"ordinance":0,"showcase":0},"geometry":{"type":"Point","coordinates":[-86.5947,40.417]}},{"id":7075,"type":"Feature","properties":{"name":"Rome City","state":"IN","type":1,"confirmed":3,"sign":0,"ordinance":0,"showcase":0},"geometry":{"type":"Point","coordinates":[-85.3766,41.4962]}},{"id":7074,"type":"Feature","properties":{"name":"Rochester","state":"IN","type":1,"confirmed":3,"sign":0,"ordinance":0,"showcase":0},"geometry":{"type":"Point","coordinates":[-86.2158,41.0648]}},{"id":7073,"type":"Feature","properties":{"name":"Roanoke","state":"IN","type":1,"confirmed":3,"sign":0,"ordinance":0,"showcase":0},"geometry":{"type":"Point","coordinates":[-85.3733,40.9625]}},{"id":7072,"type":"Feature","properties":{"name":"Ridgeville","state":"IN","type":1,"confirmed":3,"sign":0,"ordinance":0,"showcase":0},"geometry":{"type":"Point","coordinates":[-85.0289,40.2892]}},{"id":7071,"type":"Feature","properties":{"name":"Rensselaer","state":"IN","type":1,"confirmed":3,"sign":0,"ordinance":0,"showcase":0},"geometry":{"type":"Point","coordinates":[-87.1509,40.9367]}},{"id":7070,"type":"Feature","properties":{"name":"Redkey","state":"IN","type":1,"confirmed":3,"sign":0,"ordinance":0,"showcase":0},"geometry":{"type":"Point","coordinates":[-85.15,40.3489]}},{"id":7069,"type":"Feature","properties":{"name":"Porter","state":"IN","type":1,"confirmed":3,"sign":0,"ordinance":0,"showcase":0},"geometry":{"type":"Point","coordinates":[-87.0742,41.6157]}},{"id":7068,"type":"Feature","properties":{"name":"Plymouth","state":"IN","type":1,"confirmed":3,"sign":0,"ordinance":0,"showcase":0},"geometry":{"type":"Point","coordinates":[-86.3097,41.3437]}},{"id":7067,"type":"Feature","properties":{"name":"Petersburg","state":"IN","type":1,"confirmed":3,"sign":0,"ordinance":0,"showcase":0},"geometry":{"type":"Point","coordinates":[-87.2786,38.492]}},{"id":7066,"type":"Feature","properties":{"name":"Parker City","state":"IN","type":1,"confirmed":3,"sign":0,"ordinance":0,"showcase":0},"geometry":{"type":"Point","coordinates":[-85.2041,40.1889]}},{"id":7065,"type":"Feature","properties":{"name":"Oxford","state":"IN","type":1,"confirmed":3,"sign":0,"ordinance":0,"showcase":0},"geometry":{"type":"Point","coordinates":[-85.12,41.06]}},{"id":7064,"type":"Feature","properties":{"name":"Owensville","state":"IN","type":1,"confirmed":3,"sign":0,"ordinance":0,"showcase":0},"geometry":{"type":"Point","coordinates":[-87.6878,38.272]}},{"id":7063,"type":"Feature","properties":{"name":"Ossian","state":"IN","type":1,"confirmed":3,"sign":0,"ordinance":0,"showcase":0},"geometry":{"type":"Point","coordinates":[-85.1664,40.8806]}},{"id":7062,"type":"Feature","properties":{"name":"Osgood","state":"IN","type":1,"confirmed":3,"sign":0,"ordinance":0,"showcase":0},"geometry":{"type":"Point","coordinates":[-85.2916,39.1292]}},{"id":7061,"type":"Feature","properties":{"name":"Osceola","state":"IN","type":1,"confirmed":3,"sign":0,"ordinance":0,"showcase":0},"geometry":{"type":"Point","coordinates":[-86.0758,41.665]}},{"id":7060,"type":"Feature","properties":{"name":"Orleans","state":"IN","type":1,"confirmed":3,"sign":0,"ordinance":0,"showcase":0},"geometry":{"type":"Point","coordinates":[-86.4517,38.6617]}},{"id":7059,"type":"Feature","properties":{"name":"Odon","state":"IN","type":1,"confirmed":3,"sign":0,"ordinance":0,"showcase":0},"geometry":{"type":"Point","coordinates":[-86.9914,38.8428]}},{"id":7058,"type":"Feature","properties":{"name":"New Pekin","state":"IN","type":1,"confirmed":3,"sign":0,"ordinance":0,"showcase":0},"geometry":{"type":"Point","coordinates":[-86.0169,38.5051]}},{"id":7057,"type":"Feature","properties":{"name":"New Paris","state":"IN","type":3,"confirmed":3,"sign":0,"ordinance":0,"showcase":0},"geometry":{"type":"Point","coordinates":[-85.828,41.5003]}},{"id":7056,"type":"Feature","properties":{"name":"New Haven","state":"IN","type":1,"confirmed":2,"sign":0,"ordinance":0,"showcase":0},"geometry":{"type":"Point","coordinates":[-85.0173,41.0733]}},{"id":7055,"type":"Feature","properties":{"name":"New Chicago","state":"IN","type":1,"confirmed":3,"sign":0,"ordinance":0,"showcase":0},"geometry":{"type":"Point","coordinates":[-87.2745,41.5584]}},{"id":7054,"type":"Feature","properties":{"name":"New Carlisle","state":"IN","type":1,"confirmed":3,"sign":0,"ordinance":0,"showcase":0},"geometry":{"type":"Point","coordinates":[-86.5095,41.7003]}},{"id":7053,"type":"Feature","properties":{"name":"Nappanee","state":"IN","type":1,"confirmed":3,"sign":0,"ordinance":0,"showcase":0},"geometry":{"type":"Point","coordinates":[-86.0014,41.4428]}},{"id":7052,"type":"Feature","properties":{"name":"Munster","state":"IN","type":1,"confirmed":3,"sign":0,"ordinance":0,"showcase":0},"geometry":{"type":"Point","coordinates":[-87.5125,41.5645]}},{"id":7051,"type":"Feature","properties":{"name":"Mulberry","state":"IN","type":1,"confirmed":3,"sign":0,"ordinance":0,"showcase":0},"geometry":{"type":"Point","coordinates":[-86.6653,40.3445]}},{"id":7050,"type":"Feature","properties":{"name":"Morristown","state":"IN","type":1,"confirmed":2,"sign":0,"ordinance":0,"showcase":0},"geometry":{"type":"Point","coordinates":[-85.6982,39.6729]}},{"id":7049,"type":"Feature","properties":{"name":"Montpelier","state":"IN","type":1,"confirmed":3,"sign":0,"ordinance":0,"showcase":0},"geometry":{"type":"Point","coordinates":[-85.2775,40.5539]}},{"id":7048,"type":"Feature","properties":{"name":"Montezuma","state":"IN","type":1,"confirmed":3,"sign":0,"ordinance":0,"showcase":0},"geometry":{"type":"Point","coordinates":[-87.3708,39.7928]}},{"id":7047,"type":"Feature","properties":{"name":"Monroeville","state":"IN","type":1,"confirmed":3,"sign":0,"ordinance":0,"showcase":0},"geometry":{"type":"Point","coordinates":[-84.8683,40.9748]}},{"id":7046,"type":"Feature","properties":{"name":"Monon","state":"IN","type":1,"confirmed":3,"sign":0,"ordinance":0,"showcase":0},"geometry":{"type":"Point","coordinates":[-86.8789,40.8678]}},{"id":7045,"type":"Feature","properties":{"name":"Milton","state":"IN","type":1,"confirmed":3,"sign":0,"ordinance":0,"showcase":0},"geometry":{"type":"Point","coordinates":[-85.1552,39.7881]}},{"id":7044,"type":"Feature","properties":{"name":"Milltown","state":"IN","type":1,"confirmed":3,"sign":0,"ordinance":0,"showcase":0},"geometry":{"type":"Point","coordinates":[-86.2761,38.3423]}},{"id":7043,"type":"Feature","properties":{"name":"Middletown","state":"IN","type":1,"confirmed":3,"sign":0,"ordinance":0,"showcase":0},"geometry":{"type":"Point","coordinates":[-85.5372,40.0573]}},{"id":7042,"type":"Feature","properties":{"name":"Middlebury","state":"IN","type":1,"confirmed":3,"sign":0,"ordinance":0,"showcase":0},"geometry":{"type":"Point","coordinates":[-85.7058,41.675]}},{"id":7041,"type":"Feature","properties":{"name":"Marengo","state":"IN","type":1,"confirmed":2,"sign":0,"ordinance":0,"showcase":0},"geometry":{"type":"Point","coordinates":[-86.3436,38.3692]}},{"id":7040,"type":"Feature","properties":{"name":"Butler County","state":"KS","type":4,"confirmed":2,"sign":0,"ordinance":0,"showcase":0},"geometry":{"type":"Point","coordinates":[-96.8333,37.7833]}},{"id":7039,"type":"Feature","properties":{"name":"Edwards County","state":"KS","type":4,"confirmed":2,"sign":0,"ordinance":0,"showcase":0},"geometry":{"type":"Point","coordinates":[-99.2667,37.8833]}},{"id":7038,"type":"Feature","properties":{"name":"Ottawa County","state":"KS","type":4,"confirmed":2,"sign":0,"ordinance":0,"showcase":0},"geometry":{"type":"Point","coordinates":[-97.6667,39.1333]}},{"id":7037,"type":"Feature","properties":{"name":"Ellis County","state":"KS","type":4,"confirmed":2,"sign":0,"ordinance":0,"showcase":0},"geometry":{"type":"Point","coordinates":[-99.3167,38.9167]}},{"id":7036,"type":"Feature","properties":{"name":"Finney County","state":"KS","type":4,"confirmed":2,"sign":0,"ordinance":0,"showcase":0},"geometry":{"type":"Point","coordinates":[-100.85583,37.96056]}},{"id":7035,"type":"Feature","properties":{"name":"Rooks County","state":"KS","type":4,"confirmed":2,"sign":0,"ordinance":0,"showcase":0},"geometry":{"type":"Point","coordinates":[-99.10194,39.45139]}},{"id":7034,"type":"Feature","properties":{"name":"Hamilton County","state":"KS","type":4,"confirmed":2,"sign":0,"ordinance":0,"showcase":0},"geometry":{"type":"Point","coordinates":[-101.667,38.0167]}},{"id":7033,"type":"Feature","properties":{"name":"Ford County","state":"KS","type":4,"confirmed":2,"sign":0,"ordinance":0,"showcase":0},"geometry":{"type":"Point","coordinates":[-100.02495356003,37.755100964086]}},{"id":7032,"type":"Feature","properties":{"name":"Trego County","state":"KS","type":4,"confirmed":2,"sign":0,"ordinance":0,"showcase":0},"geometry":{"type":"Point","coordinates":[-100.065,39.00833]}},{"id":7031,"type":"Feature","properties":{"name":"Wallace County","state":"KS","type":4,"confirmed":2,"sign":0,"ordinance":0,"showcase":0},"geometry":{"type":"Point","coordinates":[-101.57583,38.76444]}},{"id":7030,"type":"Feature","properties":{"name":"Cloud County","state":"KS","type":4,"confirmed":2,"sign":0,"ordinance":0,"showcase":0},"geometry":{"type":"Point","coordinates":[-97.66,39.57]}},{"id":7029,"type":"Feature","properties":{"name":"Barber County","state":"KS","type":4,"confirmed":2,"sign":0,"ordinance":0,"showcase":0},"geometry":{"type":"Point","coordinates":[-98.945,37.09333]}},{"id":7028,"type":"Feature","properties":{"name":"Lynn","state":"IN","type":1,"confirmed":3,"sign":0,"ordinance":0,"showcase":0},"geometry":{"type":"Point","coordinates":[-84.9397,40.0498]}},{"id":7027,"type":"Feature","properties":{"name":"Loogootee","state":"IN","type":1,"confirmed":3,"sign":0,"ordinance":0,"showcase":0},"geometry":{"type":"Point","coordinates":[-86.9142,38.677]}},{"id":7026,"type":"Feature","properties":{"name":"Ligonier","state":"IN","type":1,"confirmed":2,"sign":0,"ordinance":0,"showcase":0},"geometry":{"type":"Point","coordinates":[-85.5875,41.4638]}},{"id":7025,"type":"Feature","properties":{"name":"Leavenworth","state":"IN","type":1,"confirmed":4,"sign":0,"ordinance":0,"showcase":0},"geometry":{"type":"Point","coordinates":[-86.3441,38.1998]}},{"id":7024,"type":"Feature","properties":{"name":"Lapel","state":"IN","type":1,"confirmed":3,"sign":0,"ordinance":0,"showcase":0},"geometry":{"type":"Point","coordinates":[-85.8483,40.0684]}},{"id":7023,"type":"Feature","properties":{"name":"LaGrange","state":"IN","type":1,"confirmed":3,"sign":0,"ordinance":0,"showcase":0},"geometry":{"type":"Point","coordinates":[-85.4167,41.6417]}},{"id":7022,"type":"Feature","properties":{"name":"Ladoga","state":"IN","type":1,"confirmed":3,"sign":0,"ordinance":0,"showcase":0},"geometry":{"type":"Point","coordinates":[-86.8011,39.9137]}},{"id":7021,"type":"Feature","properties":{"name":"Kouts","state":"IN","type":1,"confirmed":3,"sign":0,"ordinance":0,"showcase":0},"geometry":{"type":"Point","coordinates":[-87.0259,41.3167]}},{"id":7020,"type":"Feature","properties":{"name":"Kentland","state":"IN","type":1,"confirmed":3,"sign":0,"ordinance":0,"showcase":0},"geometry":{"type":"Point","coordinates":[-87.4453,40.7703]}},{"id":7019,"type":"Feature","properties":{"name":"Kendallville","state":"IN","type":1,"confirmed":2,"sign":0,"ordinance":0,"showcase":0},"geometry":{"type":"Point","coordinates":[-85.265,41.4414]}},{"id":7018,"type":"Feature","properties":{"name":"Jonesboro","state":"IN","type":1,"confirmed":3,"sign":0,"ordinance":0,"showcase":0},"geometry":{"type":"Point","coordinates":[-85.6278,40.4798]}},{"id":7017,"type":"Feature","properties":{"name":"Jasonville","state":"IN","type":1,"confirmed":3,"sign":0,"ordinance":0,"showcase":0},"geometry":{"type":"Point","coordinates":[-87.1992,39.1631]}},{"id":7016,"type":"Feature","properties":{"name":"Huntingburg","state":"IN","type":1,"confirmed":3,"sign":0,"ordinance":0,"showcase":0},"geometry":{"type":"Point","coordinates":[-86.955,38.2989]}},{"id":7015,"type":"Feature","properties":{"name":"Hope","state":"IN","type":1,"confirmed":3,"sign":0,"ordinance":0,"showcase":0},"geometry":{"type":"Point","coordinates":[-85.7708,39.3035]}},{"id":7014,"type":"Feature","properties":{"name":"Highland","state":"IN","type":1,"confirmed":2,"sign":0,"ordinance":0,"showcase":0},"geometry":{"type":"Point","coordinates":[-87.452,41.5536]}},{"id":7013,"type":"Feature","properties":{"name":"Hebron","state":"IN","type":1,"confirmed":3,"sign":0,"ordinance":0,"showcase":0},"geometry":{"type":"Point","coordinates":[-87.2003,41.3186]}},{"id":7012,"type":"Feature","properties":{"name":"Haubstadt","state":"IN","type":1,"confirmed":3,"sign":0,"ordinance":0,"showcase":0},"geometry":{"type":"Point","coordinates":[-87.5742,38.205]}},{"id":7011,"type":"Feature","properties":{"name":"Hartford City","state":"IN","type":1,"confirmed":3,"sign":0,"ordinance":0,"showcase":0},"geometry":{"type":"Point","coordinates":[-85.37,40.4512]}},{"id":7010,"type":"Feature","properties":{"name":"Greentown","state":"IN","type":1,"confirmed":3,"sign":0,"ordinance":0,"showcase":0},"geometry":{"type":"Point","coordinates":[-85.9667,40.4781]}},{"id":7009,"type":"Feature","properties":{"name":"Goodland","state":"IN","type":1,"confirmed":3,"sign":0,"ordinance":0,"showcase":0},"geometry":{"type":"Point","coordinates":[-87.2936,40.7634]}},{"id":7008,"type":"Feature","properties":{"name":"Galena","state":"IN","type":3,"confirmed":2,"sign":0,"ordinance":0,"showcase":0},"geometry":{"type":"Point","coordinates":[-85.9416,38.3517]}},{"id":7007,"type":"Feature","properties":{"name":"Fremont","state":"IN","type":1,"confirmed":2,"sign":0,"ordinance":0,"showcase":0},"geometry":{"type":"Point","coordinates":[-84.9327,41.7309]}},{"id":7006,"type":"Feature","properties":{"name":"Frankton","state":"IN","type":1,"confirmed":2,"sign":0,"ordinance":0,"showcase":0},"geometry":{"type":"Point","coordinates":[-85.7789,40.2228]}},{"id":7005,"type":"Feature","properties":{"name":"Francesville","state":"IN","type":1,"confirmed":3,"sign":0,"ordinance":0,"showcase":0},"geometry":{"type":"Point","coordinates":[-86.8795,40.9853]}},{"id":7004,"type":"Feature","properties":{"name":"Fortville","state":"IN","type":1,"confirmed":2,"sign":0,"ordinance":0,"showcase":0},"geometry":{"type":"Point","coordinates":[-85.848,39.9323]}},{"id":7003,"type":"Feature","properties":{"name":"Fort Branch","state":"IN","type":1,"confirmed":2,"sign":0,"ordinance":0,"showcase":0},"geometry":{"type":"Point","coordinates":[-87.5811,38.2512]}},{"id":7002,"type":"Feature","properties":{"name":"Logan County","state":"KS","type":4,"confirmed":2,"sign":0,"ordinance":0,"showcase":0},"geometry":{"type":"Point","coordinates":[-101.133,38.9]}},{"id":7001,"type":"Feature","properties":{"name":"Stevens County","state":"KS","type":4,"confirmed":2,"sign":0,"ordinance":0,"showcase":0},"geometry":{"type":"Point","coordinates":[-101.3,37.2]}},{"id":7000,"type":"Feature","properties":{"name":"Gray County","state":"KS","type":4,"confirmed":2,"sign":0,"ordinance":0,"showcase":0},"geometry":{"type":"Point","coordinates":[-100.433,37.7333]}},{"id":6999,"type":"Feature","properties":{"name":"Kearney County","state":"KS","type":4,"confirmed":2,"sign":0,"ordinance":0,"showcase":0},"geometry":{"type":"Point","coordinates":[-101.14833,38.00806]}},{"id":6998,"type":"Feature","properties":{"name":"Thomas County","state":"KS","type":4,"confirmed":2,"sign":0,"ordinance":0,"showcase":0},"geometry":{"type":"Point","coordinates":[-101.05,39.35]}},{"id":6997,"type":"Feature","properties":{"name":"Clark County","state":"KS","type":4,"confirmed":2,"sign":0,"ordinance":0,"showcase":0},"geometry":{"type":"Point","coordinates":[-99.8333,37.2333]}},{"id":6996,"type":"Feature","properties":{"name":"Rush County","state":"KS","type":4,"confirmed":2,"sign":0,"ordinance":0,"showcase":0},"geometry":{"type":"Point","coordinates":[-99.3,38.5167]}},{"id":6995,"type":"Feature","properties":{"name":"Stanton County","state":"KS","type":4,"confirmed":2,"sign":0,"ordinance":0,"showcase":0},"geometry":{"type":"Point","coordinates":[-101.783,37.5667]}},{"id":6994,"type":"Feature","properties":{"name":"Sheridan County","state":"KS","type":4,"confirmed":2,"sign":0,"ordinance":0,"showcase":0},"geometry":{"type":"Point","coordinates":[-100.433,39.35]}},{"id":6993,"type":"Feature","properties":{"name":"Flora","state":"IN","type":1,"confirmed":3,"sign":0,"ordinance":0,"showcase":0},"geometry":{"type":"Point","coordinates":[-86.5244,40.5473]}},{"id":6992,"type":"Feature","properties":{"name":"Ferdinand","state":"IN","type":1,"confirmed":3,"sign":0,"ordinance":0,"showcase":0},"geometry":{"type":"Point","coordinates":[-86.8622,38.2239]}},{"id":6991,"type":"Feature","properties":{"name":"Farmland","state":"IN","type":1,"confirmed":3,"sign":0,"ordinance":0,"showcase":0},"geometry":{"type":"Point","coordinates":[-85.9488915,39.677507]}},{"id":6990,"type":"Feature","properties":{"name":"Farmersburg","state":"IN","type":1,"confirmed":3,"sign":0,"ordinance":0,"showcase":0},"geometry":{"type":"Point","coordinates":[-87.382,39.2487]}},{"id":6989,"type":"Feature","properties":{"name":"Fairview Park","state":"IN","type":1,"confirmed":2,"sign":0,"ordinance":0,"showcase":0},"geometry":{"type":"Point","coordinates":[-87.412791,39.680331]}},{"id":6988,"type":"Feature","properties":{"name":"Elnora","state":"IN","type":1,"confirmed":3,"sign":0,"ordinance":0,"showcase":0},"geometry":{"type":"Point","coordinates":[-87.0858,38.8784]}},{"id":6987,"type":"Feature","properties":{"name":"Ellettsville","state":"IN","type":1,"confirmed":2,"sign":0,"ordinance":0,"showcase":0},"geometry":{"type":"Point","coordinates":[-86.625,39.2339]}},{"id":6986,"type":"Feature","properties":{"name":"Eaton","state":"IN","type":1,"confirmed":2,"sign":0,"ordinance":0,"showcase":0},"geometry":{"type":"Point","coordinates":[-85.3508,40.3403]}},{"id":6985,"type":"Feature","properties":{"name":"Dyer","state":"IN","type":1,"confirmed":2,"sign":0,"ordinance":0,"showcase":0},"geometry":{"type":"Point","coordinates":[-87.5217,41.4942]}},{"id":6984,"type":"Feature","properties":{"name":"Dugger","state":"IN","type":1,"confirmed":3,"sign":0,"ordinance":0,"showcase":0},"geometry":{"type":"Point","coordinates":[-87.2614,39.07]}},{"id":6983,"type":"Feature","properties":{"name":"Dublin","state":"IN","type":1,"confirmed":3,"sign":0,"ordinance":0,"showcase":0},"geometry":{"type":"Point","coordinates":[-85.2089,39.8123]}},{"id":6982,"type":"Feature","properties":{"name":"Dillsboro","state":"IN","type":1,"confirmed":2,"sign":0,"ordinance":0,"showcase":0},"geometry":{"type":"Point","coordinates":[-85.0588,39.0178]}},{"id":6981,"type":"Feature","properties":{"name":"Delphi","state":"IN","type":1,"confirmed":3,"sign":0,"ordinance":0,"showcase":0},"geometry":{"type":"Point","coordinates":[-86.675,40.5875]}},{"id":6980,"type":"Feature","properties":{"name":"Danville","state":"IN","type":1,"confirmed":3,"sign":0,"ordinance":0,"showcase":0},"geometry":{"type":"Point","coordinates":[-86.5264,39.7606]}},{"id":6979,"type":"Feature","properties":{"name":"Daleville","state":"IN","type":1,"confirmed":2,"sign":0,"ordinance":0,"showcase":0},"geometry":{"type":"Point","coordinates":[-85.558,40.1212]}},{"id":6978,"type":"Feature","properties":{"name":"Dale","state":"IN","type":1,"confirmed":2,"sign":0,"ordinance":0,"showcase":0},"geometry":{"type":"Point","coordinates":[-86.99,38.1689]}},{"id":6977,"type":"Feature","properties":{"name":"Crothersville","state":"IN","type":1,"confirmed":3,"sign":0,"ordinance":0,"showcase":0},"geometry":{"type":"Point","coordinates":[-85.8416,38.8006]}},{"id":6976,"type":"Feature","properties":{"name":"Covington","state":"IN","type":1,"confirmed":3,"sign":0,"ordinance":0,"showcase":0},"geometry":{"type":"Point","coordinates":[-87.3947,40.1417]}},{"id":6975,"type":"Feature","properties":{"name":"Converse","state":"IN","type":0,"confirmed":3,"sign":0,"ordinance":0,"showcase":0},"geometry":{"type":"Point","coordinates":[-85.8726,40.5779]}},{"id":6974,"type":"Feature","properties":{"name":"Clay City","state":"IN","type":1,"confirmed":3,"sign":0,"ordinance":0,"showcase":0},"geometry":{"type":"Point","coordinates":[-87.1128,39.2767]}},{"id":6973,"type":"Feature","properties":{"name":"Cicero","state":"IN","type":1,"confirmed":2,"sign":0,"ordinance":0,"showcase":0},"geometry":{"type":"Point","coordinates":[-86.0133,40.1239]}},{"id":6972,"type":"Feature","properties":{"name":"Cayuga","state":"IN","type":1,"confirmed":2,"sign":0,"ordinance":0,"showcase":0},"geometry":{"type":"Point","coordinates":[-87.4597,39.9486]}},{"id":6971,"type":"Feature","properties":{"name":"Carmel","state":"IN","type":1,"confirmed":2,"sign":0,"ordinance":0,"showcase":0},"geometry":{"type":"Point","coordinates":[-86.1187,39.9788]}},{"id":6970,"type":"Feature","properties":{"name":"Campbellsburg","state":"IN","type":1,"confirmed":3,"sign":0,"ordinance":0,"showcase":0},"geometry":{"type":"Point","coordinates":[-86.2611,38.6514]}},{"id":6969,"type":"Feature","properties":{"name":"Camden","state":"IN","type":1,"confirmed":3,"sign":0,"ordinance":0,"showcase":0},"geometry":{"type":"Point","coordinates":[-86.54,40.6086]}},{"id":6968,"type":"Feature","properties":{"name":"Butler City","state":"IN","type":1,"confirmed":3,"sign":0,"ordinance":0,"showcase":0},"geometry":{"type":"Point","coordinates":[-124.0295985,44.8889315]}},{"id":6967,"type":"Feature","properties":{"name":"Burnettsville","state":"IN","type":1,"confirmed":2,"sign":0,"ordinance":0,"showcase":0},"geometry":{"type":"Point","coordinates":[-86.5936,40.7612]}},{"id":6966,"type":"Feature","properties":{"name":"Brooklyn","state":"IN","type":1,"confirmed":2,"sign":0,"ordinance":0,"showcase":0},"geometry":{"type":"Point","coordinates":[-86.37,39.54]}},{"id":6965,"type":"Feature","properties":{"name":"Bremen","state":"IN","type":1,"confirmed":3,"sign":0,"ordinance":0,"showcase":0},"geometry":{"type":"Point","coordinates":[-86.1481,41.4464]}},{"id":6964,"type":"Feature","properties":{"name":"Bourbon","state":"IN","type":1,"confirmed":3,"sign":0,"ordinance":0,"showcase":0},"geometry":{"type":"Point","coordinates":[-86.1164,41.2956]}},{"id":6963,"type":"Feature","properties":{"name":"Boswell","state":"IN","type":1,"confirmed":2,"sign":0,"ordinance":0,"showcase":0},"geometry":{"type":"Point","coordinates":[-87.3784,40.5211]}},{"id":6962,"type":"Feature","properties":{"name":"Bloomfield","state":"IN","type":1,"confirmed":3,"sign":0,"ordinance":0,"showcase":0},"geometry":{"type":"Point","coordinates":[-86.9375,39.027]}},{"id":6961,"type":"Feature","properties":{"name":"Avilla","state":"IN","type":1,"confirmed":3,"sign":0,"ordinance":0,"showcase":0},"geometry":{"type":"Point","coordinates":[-85.2389,41.3659]}},{"id":6960,"type":"Feature","properties":{"name":"Austin","state":"IN","type":1,"confirmed":3,"sign":0,"ordinance":0,"showcase":0},"geometry":{"type":"Point","coordinates":[-85.808,38.7584]}},{"id":6959,"type":"Feature","properties":{"name":"Argos","state":"IN","type":1,"confirmed":3,"sign":0,"ordinance":0,"showcase":0},"geometry":{"type":"Point","coordinates":[-86.2147,41.2378]}},{"id":6958,"type":"Feature","properties":{"name":"Albion","state":"IN","type":1,"confirmed":3,"sign":0,"ordinance":0,"showcase":0},"geometry":{"type":"Point","coordinates":[-85.4244,41.3956]}},{"id":6957,"type":"Feature","properties":{"name":"Albany","state":"IN","type":1,"confirmed":2,"sign":0,"ordinance":0,"showcase":0},"geometry":{"type":"Point","coordinates":[-85.2419,40.3009]}},{"id":6956,"type":"Feature","properties":{"name":"Advance","state":"IN","type":1,"confirmed":2,"sign":0,"ordinance":0,"showcase":0},"geometry":{"type":"Point","coordinates":[-86.62,39.9959]}},{"id":6955,"type":"Feature","properties":{"name":"Porter Heights","state":"TX","type":1,"confirmed":2,"sign":0,"ordinance":0,"showcase":0},"geometry":{"type":"Point","coordinates":[-95.3203,30.1579]}},{"id":6954,"type":"Feature","properties":{"name":"Evadale","state":"TX","type":1,"confirmed":2,"sign":0,"ordinance":0,"showcase":0},"geometry":{"type":"Point","coordinates":[-94.0725,30.354719]}},{"id":6953,"type":"Feature","properties":{"name":"Pinewood Estates","state":"TX","type":2,"confirmed":2,"sign":0,"ordinance":0,"showcase":0},"geometry":{"type":"Point","coordinates":[-94.3216,30.1644]}},{"id":6952,"type":"Feature","properties":{"name":"Bevil Oaks","state":"TX","type":2,"confirmed":2,"sign":0,"ordinance":0,"showcase":0},"geometry":{"type":"Point","coordinates":[-94.2696,30.1502]}},{"id":6951,"type":"Feature","properties":{"name":"Nederland","state":"TX","type":1,"confirmed":2,"sign":3,"ordinance":0,"showcase":0},"geometry":{"type":"Point","coordinates":[-93.9924,29.9744]}},{"id":6950,"type":"Feature","properties":{"name":"Port Neches","state":"TX","type":1,"confirmed":2,"sign":0,"ordinance":0,"showcase":0},"geometry":{"type":"Point","coordinates":[-93.9585,29.9913]}},{"id":6949,"type":"Feature","properties":{"name":"Winnie","state":"TX","type":1,"confirmed":2,"sign":0,"ordinance":0,"showcase":0},"geometry":{"type":"Point","coordinates":[-94.3841,29.8202]}},{"id":6948,"type":"Feature","properties":{"name":"Ferguson","state":"MO","type":2,"confirmed":1,"sign":4,"ordinance":4,"showcase":0},"geometry":{"type":"Point","coordinates":[-90.3054,38.7442]}},{"id":6947,"type":"Feature","properties":{"name":"Sebewaing","state":"MI","type":1,"confirmed":2,"sign":0,"ordinance":0,"showcase":0},"geometry":{"type":"Point","coordinates":[-83.4511,43.7322]}},{"id":6946,"type":"Feature","properties":{"name":"Bessemer","state":"MI","type":1,"confirmed":2,"sign":0,"ordinance":0,"showcase":0},"geometry":{"type":"Point","coordinates":[-90.053,46.4813]}},{"id":6945,"type":"Feature","properties":{"name":"Marquette","state":"MI","type":1,"confirmed":2,"sign":0,"ordinance":0,"showcase":0},"geometry":{"type":"Point","coordinates":[-87.3964,46.5435]}},{"id":6944,"type":"Feature","properties":{"name":"Munising","state":"MI","type":1,"confirmed":2,"sign":0,"ordinance":0,"showcase":0},"geometry":{"type":"Point","coordinates":[-86.6479,46.4111]}},{"id":6943,"type":"Feature","properties":{"name":"Ontonagon","state":"MI","type":1,"confirmed":2,"sign":0,"ordinance":0,"showcase":0},"geometry":{"type":"Point","coordinates":[-89.314,46.8711]}},{"id":6942,"type":"Feature","properties":{"name":"Ishpeming","state":"MI","type":1,"confirmed":2,"sign":0,"ordinance":0,"showcase":0},"geometry":{"type":"Point","coordinates":[-87.6676,46.4885]}},{"id":6941,"type":"Feature","properties":{"name":"Pinckney","state":"MI","type":1,"confirmed":2,"sign":0,"ordinance":0,"showcase":0},"geometry":{"type":"Point","coordinates":[-83.9463,42.4567]}},{"id":6940,"type":"Feature","properties":{"name":"Swisher County","state":"TX","type":4,"confirmed":2,"sign":0,"ordinance":0,"showcase":0},"geometry":{"type":"Point","coordinates":[-101.73,34.53]}},{"id":6939,"type":"Feature","properties":{"name":"Sherman County","state":"TX","type":4,"confirmed":2,"sign":0,"ordinance":0,"showcase":0},"geometry":{"type":"Point","coordinates":[-101.89,36.28]}},{"id":6938,"type":"Feature","properties":{"name":"Roberts County","state":"TX","type":4,"confirmed":2,"sign":0,"ordinance":0,"showcase":0},"geometry":{"type":"Point","coordinates":[-100.81,35.83]}},{"id":6937,"type":"Feature","properties":{"name":"Randall County","state":"TX","type":4,"confirmed":2,"sign":0,"ordinance":0,"showcase":0},"geometry":{"type":"Point","coordinates":[-101.9,34.97]}},{"id":6936,"type":"Feature","properties":{"name":"Potter County","state":"TX","type":4,"confirmed":2,"sign":0,"ordinance":0,"showcase":0},"geometry":{"type":"Point","coordinates":[-101.834033,35.207907]}},{"id":6935,"type":"Feature","properties":{"name":"Parmer County","state":"TX","type":4,"confirmed":2,"sign":0,"ordinance":0,"showcase":0},"geometry":{"type":"Point","coordinates":[-102.78,34.53]}},{"id":6934,"type":"Feature","properties":{"name":"Oldham County","state":"TX","type":4,"confirmed":2,"sign":0,"ordinance":0,"showcase":0},"geometry":{"type":"Point","coordinates":[-102.6,35.4]}},{"id":6933,"type":"Feature","properties":{"name":"Moore County","state":"TX","type":4,"confirmed":2,"sign":0,"ordinance":0,"showcase":0},"geometry":{"type":"Point","coordinates":[-101.89,35.84]}},{"id":6932,"type":"Feature","properties":{"name":"Lipscomb County","state":"TX","type":4,"confirmed":2,"sign":0,"ordinance":0,"showcase":0},"geometry":{"type":"Point","coordinates":[-100.27,36.28]}},{"id":6931,"type":"Feature","properties":{"name":"Hutchinson County","state":"TX","type":4,"confirmed":2,"sign":0,"ordinance":0,"showcase":0},"geometry":{"type":"Point","coordinates":[-101.36,35.84]}},{"id":6930,"type":"Feature","properties":{"name":"Hemphill County","state":"TX","type":4,"confirmed":2,"sign":0,"ordinance":0,"showcase":0},"geometry":{"type":"Point","coordinates":[-100.28,35.83]}},{"id":6929,"type":"Feature","properties":{"name":"Hartley County","state":"TX","type":4,"confirmed":2,"sign":0,"ordinance":0,"showcase":0},"geometry":{"type":"Point","coordinates":[-102.61,35.84]}},{"id":6928,"type":"Feature","properties":{"name":"Hansford County","state":"TX","type":4,"confirmed":2,"sign":0,"ordinance":0,"showcase":0},"geometry":{"type":"Point","coordinates":[-101.35,36.28]}},{"id":6927,"type":"Feature","properties":{"name":"Hall County","state":"TX","type":4,"confirmed":2,"sign":0,"ordinance":0,"showcase":0},"geometry":{"type":"Point","coordinates":[-100.69,34.52]}},{"id":6926,"type":"Feature","properties":{"name":"Gray County","state":"TX","type":4,"confirmed":2,"sign":0,"ordinance":0,"showcase":0},"geometry":{"type":"Point","coordinates":[-100.81,35.41]}},{"id":6925,"type":"Feature","properties":{"name":"Donley County","state":"TX","type":4,"confirmed":2,"sign":0,"ordinance":0,"showcase":0},"geometry":{"type":"Point","coordinates":[-100.81,34.96]}},{"id":6924,"type":"Feature","properties":{"name":"Deaf Smith County","state":"TX","type":4,"confirmed":2,"sign":0,"ordinance":0,"showcase":0},"geometry":{"type":"Point","coordinates":[-102.6,34.97]}},{"id":6923,"type":"Feature","properties":{"name":"Deaf Smith","state":"TX","type":4,"confirmed":2,"sign":0,"ordinance":0,"showcase":0},"geometry":{"type":"Point","coordinates":[-102.6,34.97]}},{"id":6922,"type":"Feature","properties":{"name":"Collingsworth County","state":"TX","type":4,"confirmed":2,"sign":0,"ordinance":0,"showcase":0},"geometry":{"type":"Point","coordinates":[-100.27,34.97]}},{"id":6921,"type":"Feature","properties":{"name":"Childress County","state":"TX","type":4,"confirmed":2,"sign":0,"ordinance":0,"showcase":0},"geometry":{"type":"Point","coordinates":[-100.2,34.54]}},{"id":6920,"type":"Feature","properties":{"name":"Castro County","state":"TX","type":4,"confirmed":2,"sign":0,"ordinance":0,"showcase":0},"geometry":{"type":"Point","coordinates":[-96.819474,32.93011]}},{"id":6919,"type":"Feature","properties":{"name":"Carson County","state":"TX","type":4,"confirmed":2,"sign":0,"ordinance":0,"showcase":0},"geometry":{"type":"Point","coordinates":[-101.35,35.41]}},{"id":6918,"type":"Feature","properties":{"name":"Briscoe County","state":"TX","type":4,"confirmed":2,"sign":0,"ordinance":0,"showcase":0},"geometry":{"type":"Point","coordinates":[-101.21,34.53]}},{"id":6917,"type":"Feature","properties":{"name":"Armstrong County","state":"TX","type":4,"confirmed":2,"sign":0,"ordinance":0,"showcase":0},"geometry":{"type":"Point","coordinates":[-101.35,34.97]}},{"id":6916,"type":"Feature","properties":{"name":"Wixom","state":"MI","type":1,"confirmed":2,"sign":0,"ordinance":0,"showcase":0},"geometry":{"type":"Point","coordinates":[-83.5363,42.5248]}},{"id":6915,"type":"Feature","properties":{"name":"Trenton","state":"MI","type":1,"confirmed":2,"sign":0,"ordinance":0,"showcase":0},"geometry":{"type":"Point","coordinates":[-83.1801,42.1407]}},{"id":6914,"type":"Feature","properties":{"name":"Traverse City","state":"MI","type":1,"confirmed":2,"sign":0,"ordinance":0,"showcase":0},"geometry":{"type":"Point","coordinates":[-85.6165,44.7606]}},{"id":6913,"type":"Feature","properties":{"name":"Manistique","state":"MI","type":1,"confirmed":2,"sign":0,"ordinance":0,"showcase":0},"geometry":{"type":"Point","coordinates":[-86.2463,45.9578]}},{"id":6912,"type":"Feature","properties":{"name":"Mancelona","state":"MI","type":1,"confirmed":2,"sign":0,"ordinance":0,"showcase":0},"geometry":{"type":"Point","coordinates":[-85.0609,44.9022]}},{"id":6911,"type":"Feature","properties":{"name":"Linden","state":"MI","type":1,"confirmed":2,"sign":0,"ordinance":0,"showcase":0},"geometry":{"type":"Point","coordinates":[-83.7825,42.8145]}},{"id":6910,"type":"Feature","properties":{"name":"Lexington","state":"MI","type":1,"confirmed":2,"sign":0,"ordinance":0,"showcase":0},"geometry":{"type":"Point","coordinates":[-82.5308,43.2681]}},{"id":6909,"type":"Feature","properties":{"name":"Climax","state":"MI","type":1,"confirmed":2,"sign":0,"ordinance":0,"showcase":0},"geometry":{"type":"Point","coordinates":[-85.335,42.2384]}},{"id":6908,"type":"Feature","properties":{"name":"Pharr","state":"TX","type":1,"confirmed":2,"sign":0,"ordinance":0,"showcase":0},"geometry":{"type":"Point","coordinates":[-98.1836,26.1948]}},{"id":6907,"type":"Feature","properties":{"name":"West Orange","state":"TX","type":1,"confirmed":2,"sign":0,"ordinance":0,"showcase":0},"geometry":{"type":"Point","coordinates":[-93.7582,30.0822]}},{"id":6906,"type":"Feature","properties":{"name":"Stinnett","state":"TX","type":1,"confirmed":2,"sign":0,"ordinance":0,"showcase":0},"geometry":{"type":"Point","coordinates":[-101.4427,35.827]}},{"id":6905,"type":"Feature","properties":{"name":"Spearman","state":"TX","type":1,"confirmed":2,"sign":0,"ordinance":0,"showcase":0},"geometry":{"type":"Point","coordinates":[-101.1924,36.1984]}},{"id":6904,"type":"Feature","properties":{"name":"San Juan","state":"TX","type":1,"confirmed":2,"sign":0,"ordinance":0,"showcase":0},"geometry":{"type":"Point","coordinates":[-98.1553,26.1892]}},{"id":6903,"type":"Feature","properties":{"name":"San Diego","state":"TX","type":1,"confirmed":2,"sign":0,"ordinance":0,"showcase":0},"geometry":{"type":"Point","coordinates":[-98.2389,27.7639]}},{"id":6902,"type":"Feature","properties":{"name":"River Oaks","state":"TX","type":1,"confirmed":2,"sign":0,"ordinance":0,"showcase":0},"geometry":{"type":"Point","coordinates":[-97.3945,32.7771]}},{"id":6901,"type":"Feature","properties":{"name":"Rio Grande City","state":"TX","type":1,"confirmed":2,"sign":0,"ordinance":0,"showcase":0},"geometry":{"type":"Point","coordinates":[-98.8203,26.3798]}},{"id":6900,"type":"Feature","properties":{"name":"Fremont","state":"TX","type":1,"confirmed":2,"sign":0,"ordinance":0,"showcase":0},"geometry":{"type":"Point","coordinates":[-95.5398429,30.65674535]}},{"id":6899,"type":"Feature","properties":{"name":"Phillips","state":"TX","type":1,"confirmed":2,"sign":0,"ordinance":0,"showcase":0},"geometry":{"type":"Point","coordinates":[-94.971728,29.386531]}},{"id":6898,"type":"Feature","properties":{"name":"White Settlement","state":"TX","type":2,"confirmed":2,"sign":0,"ordinance":0,"showcase":0},"geometry":{"type":"Point","coordinates":[-97.4584,32.7596]}},{"id":6897,"type":"Feature","properties":{"name":"Oak Knoll","state":"TX","type":1,"confirmed":2,"sign":0,"ordinance":0,"showcase":0},"geometry":{"type":"Point","coordinates":[-94.862364,30.862835]}},{"id":6896,"type":"Feature","properties":{"name":"Lakeview","state":"TX","type":1,"confirmed":2,"sign":0,"ordinance":0,"showcase":0},"geometry":{"type":"Point","coordinates":[-97.145275,32.808541]}},{"id":6895,"type":"Feature","properties":{"name":"Lake Jackson","state":"TX","type":1,"confirmed":2,"sign":0,"ordinance":0,"showcase":0},"geometry":{"type":"Point","coordinates":[-95.4344,29.0339]}},{"id":6894,"type":"Feature","properties":{"name":"Jacinto City","state":"TX","type":1,"confirmed":2,"sign":0,"ordinance":0,"showcase":0},"geometry":{"type":"Point","coordinates":[-95.2337,29.7673]}},{"id":6893,"type":"Feature","properties":{"name":"Hillcrest","state":"TX","type":1,"confirmed":2,"sign":0,"ordinance":0,"showcase":0},"geometry":{"type":"Point","coordinates":[-98.56,29.49]}},{"id":6892,"type":"Feature","properties":{"name":"Highlands","state":"TX","type":1,"confirmed":2,"sign":0,"ordinance":0,"showcase":0},"geometry":{"type":"Point","coordinates":[-95.056,29.8188]}},{"id":6891,"type":"Feature","properties":{"name":"Hereford","state":"TX","type":1,"confirmed":2,"sign":0,"ordinance":0,"showcase":0},"geometry":{"type":"Point","coordinates":[-102.3977,34.8151]}},{"id":6890,"type":"Feature","properties":{"name":"Hamilton","state":"TX","type":1,"confirmed":2,"sign":0,"ordinance":0,"showcase":0},"geometry":{"type":"Point","coordinates":[-98.1239,31.7038]}},{"id":6889,"type":"Feature","properties":{"name":"Hico","state":"TX","type":1,"confirmed":2,"sign":0,"ordinance":0,"showcase":0},"geometry":{"type":"Point","coordinates":[-98.0336,31.9829]}},{"id":6888,"type":"Feature","properties":{"name":"Edcouch","state":"TX","type":1,"confirmed":2,"sign":0,"ordinance":0,"showcase":0},"geometry":{"type":"Point","coordinates":[-97.9606,26.294]}},{"id":6887,"type":"Feature","properties":{"name":"Dumas","state":"TX","type":1,"confirmed":2,"sign":0,"ordinance":0,"showcase":0},"geometry":{"type":"Point","coordinates":[-101.9732,35.8656]}},{"id":6886,"type":"Feature","properties":{"name":"Dalhart","state":"TX","type":4,"confirmed":2,"sign":0,"ordinance":0,"showcase":0},"geometry":{"type":"Point","coordinates":[-102.5132,36.0595]}},{"id":6885,"type":"Feature","properties":{"name":"Donna","state":"TX","type":1,"confirmed":2,"sign":0,"ordinance":0,"showcase":0},"geometry":{"type":"Point","coordinates":[-98.0522,26.1702]}},{"id":6884,"type":"Feature","properties":{"name":"Cotulla","state":"TX","type":1,"confirmed":2,"sign":0,"ordinance":0,"showcase":0},"geometry":{"type":"Point","coordinates":[-99.235,28.4369]}},{"id":6883,"type":"Feature","properties":{"name":"Benavides","state":"TX","type":1,"confirmed":2,"sign":0,"ordinance":0,"showcase":0},"geometry":{"type":"Point","coordinates":[-98.4118,27.5958]}},{"id":6882,"type":"Feature","properties":{"name":"Brownsville","state":"TX","type":0,"confirmed":0,"sign":0,"ordinance":0,"showcase":0},"geometry":{"type":"Point","coordinates":[-97.4891,25.914]}},{"id":6881,"type":"Feature","properties":{"name":"Alamo","state":"TX","type":1,"confirmed":2,"sign":0,"ordinance":0,"showcase":0},"geometry":{"type":"Point","coordinates":[-98.1231,26.1837]}},{"id":6880,"type":"Feature","properties":{"name":"Harrison","state":"NE","type":1,"confirmed":2,"sign":0,"ordinance":0,"showcase":0},"geometry":{"type":"Point","coordinates":[-103.8827,42.6872]}},{"id":6879,"type":"Feature","properties":{"name":"Jackson","state":"NE","type":1,"confirmed":2,"sign":0,"ordinance":0,"showcase":0},"geometry":{"type":"Point","coordinates":[-96.5648,42.4486]}},{"id":6878,"type":"Feature","properties":{"name":"Saline County","state":"NE","type":4,"confirmed":2,"sign":0,"ordinance":0,"showcase":0},"geometry":{"type":"Point","coordinates":[-97.14,40.53]}},{"id":6877,"type":"Feature","properties":{"name":"Wheeler County","state":"NE","type":4,"confirmed":2,"sign":0,"ordinance":0,"showcase":0},"geometry":{"type":"Point","coordinates":[-98.53,41.92]}},{"id":6876,"type":"Feature","properties":{"name":"Hamilton County","state":"NE","type":4,"confirmed":2,"sign":0,"ordinance":0,"showcase":0},"geometry":{"type":"Point","coordinates":[-98.02,40.88]}},{"id":6875,"type":"Feature","properties":{"name":"Morrill County","state":"NE","type":4,"confirmed":2,"sign":0,"ordinance":0,"showcase":0},"geometry":{"type":"Point","coordinates":[-103.01,41.69]}},{"id":6874,"type":"Feature","properties":{"name":"Knox County","state":"NE","type":4,"confirmed":2,"sign":0,"ordinance":0,"showcase":0},"geometry":{"type":"Point","coordinates":[-97.88,42.63]}},{"id":6873,"type":"Feature","properties":{"name":"Holt County","state":"NE","type":4,"confirmed":2,"sign":0,"ordinance":0,"showcase":0},"geometry":{"type":"Point","coordinates":[-98.78,42.46]}},{"id":6872,"type":"Feature","properties":{"name":"Keya Paha County","state":"NE","type":2,"confirmed":4,"sign":0,"ordinance":0,"showcase":0},"geometry":{"type":"Point","coordinates":[-99.72,42.88]}},{"id":6871,"type":"Feature","properties":{"name":"Fillmore County","state":"NE","type":4,"confirmed":2,"sign":0,"ordinance":0,"showcase":0},"geometry":{"type":"Point","coordinates":[-97.6,40.52]}},{"id":6870,"type":"Feature","properties":{"name":"Clay County","state":"NE","type":4,"confirmed":2,"sign":0,"ordinance":0,"showcase":0},"geometry":{"type":"Point","coordinates":[-98.05,40.52]}},{"id":6869,"type":"Feature","properties":{"name":"Polk County","state":"NE","type":0,"confirmed":0,"sign":0,"ordinance":0,"showcase":0},"geometry":{"type":"Point","coordinates":[-97.57,41.19]}},{"id":6868,"type":"Feature","properties":{"name":"Thayer County","state":"NE","type":4,"confirmed":2,"sign":0,"ordinance":0,"showcase":0},"geometry":{"type":"Point","coordinates":[-97.59,40.18]}},{"id":6867,"type":"Feature","properties":{"name":"Webster County","state":"NE","type":4,"confirmed":2,"sign":0,"ordinance":0,"showcase":0},"geometry":{"type":"Point","coordinates":[-98.5,40.18]}},{"id":6866,"type":"Feature","properties":{"name":"Stanton County","state":"NE","type":4,"confirmed":2,"sign":0,"ordinance":0,"showcase":0},"geometry":{"type":"Point","coordinates":[-97.19,41.92]}},{"id":6865,"type":"Feature","properties":{"name":"Sioux County","state":"NE","type":4,"confirmed":2,"sign":0,"ordinance":0,"showcase":0},"geometry":{"type":"Point","coordinates":[-103.77,42.48]}},{"id":6864,"type":"Feature","properties":{"name":"Boone County","state":"NE","type":4,"confirmed":2,"sign":0,"ordinance":0,"showcase":0},"geometry":{"type":"Point","coordinates":[-98.06,41.7]}},{"id":6863,"type":"Feature","properties":{"name":"Howard County","state":"NE","type":4,"confirmed":2,"sign":0,"ordinance":0,"showcase":0},"geometry":{"type":"Point","coordinates":[-98.52,41.22]}},{"id":6862,"type":"Feature","properties":{"name":"Sherman County","state":"NE","type":4,"confirmed":2,"sign":0,"ordinance":0,"showcase":0},"geometry":{"type":"Point","coordinates":[-98.97,41.22]}},{"id":6861,"type":"Feature","properties":{"name":"Boyd County","state":"NE","type":4,"confirmed":2,"sign":0,"ordinance":0,"showcase":0},"geometry":{"type":"Point","coordinates":[-98.77,42.9]}},{"id":6860,"type":"Feature","properties":{"name":"Wayne County","state":"NE","type":4,"confirmed":2,"sign":0,"ordinance":0,"showcase":0},"geometry":{"type":"Point","coordinates":[-97.12,42.21]}},{"id":6859,"type":"Feature","properties":{"name":"Phelps County","state":"NE","type":4,"confirmed":2,"sign":0,"ordinance":0,"showcase":0},"geometry":{"type":"Point","coordinates":[-99.41,40.51]}},{"id":6858,"type":"Feature","properties":{"name":"Pawnee County","state":"NE","type":4,"confirmed":2,"sign":0,"ordinance":0,"showcase":0},"geometry":{"type":"Point","coordinates":[-96.24,40.13]}},{"id":6857,"type":"Feature","properties":{"name":"Brown County","state":"NE","type":4,"confirmed":2,"sign":0,"ordinance":0,"showcase":0},"geometry":{"type":"Point","coordinates":[-99.93,42.44]}},{"id":6856,"type":"Feature","properties":{"name":"Furnas County","state":"NE","type":4,"confirmed":2,"sign":0,"ordinance":0,"showcase":0},"geometry":{"type":"Point","coordinates":[-99.91,40.17]}},{"id":6855,"type":"Feature","properties":{"name":"Blaine County","state":"NE","type":4,"confirmed":2,"sign":0,"ordinance":0,"showcase":0},"geometry":{"type":"Point","coordinates":[-99.98,41.93]}},{"id":6854,"type":"Feature","properties":{"name":"Pierce County","state":"NE","type":4,"confirmed":2,"sign":0,"ordinance":0,"showcase":0},"geometry":{"type":"Point","coordinates":[-97.61,42.27]}},{"id":6853,"type":"Feature","properties":{"name":"Kimball County","state":"NE","type":4,"confirmed":2,"sign":0,"ordinance":0,"showcase":0},"geometry":{"type":"Point","coordinates":[-103.71,41.2]}},{"id":6852,"type":"Feature","properties":{"name":"Hitchcock County","state":"NE","type":4,"confirmed":2,"sign":0,"ordinance":0,"showcase":0},"geometry":{"type":"Point","coordinates":[-101.04,40.18]}},{"id":6851,"type":"Feature","properties":{"name":"Frontier County","state":"NE","type":4,"confirmed":2,"sign":0,"ordinance":0,"showcase":0},"geometry":{"type":"Point","coordinates":[-100.39,40.53]}},{"id":6850,"type":"Feature","properties":{"name":"Valley County","state":"NE","type":4,"confirmed":2,"sign":0,"ordinance":0,"showcase":0},"geometry":{"type":"Point","coordinates":[-98.98,41.57]}},{"id":6849,"type":"Feature","properties":{"name":"Thomas County","state":"NE","type":4,"confirmed":2,"sign":0,"ordinance":0,"showcase":0},"geometry":{"type":"Point","coordinates":[-100.58,41.92]}},{"id":6848,"type":"Feature","properties":{"name":"Rock County","state":"NE","type":4,"confirmed":2,"sign":0,"ordinance":0,"showcase":0},"geometry":{"type":"Point","coordinates":[-99.45,42.42]}},{"id":6847,"type":"Feature","properties":{"name":"Perkins County","state":"NE","type":4,"confirmed":2,"sign":0,"ordinance":0,"showcase":0},"geometry":{"type":"Point","coordinates":[-101.66,40.84]}},{"id":6846,"type":"Feature","properties":{"name":"Grant County","state":"NE","type":4,"confirmed":2,"sign":0,"ordinance":0,"showcase":0},"geometry":{"type":"Point","coordinates":[-101.74,41.92]}},{"id":6845,"type":"Feature","properties":{"name":"Canadian","state":"TX","type":1,"confirmed":3,"sign":3,"ordinance":0,"showcase":0},"geometry":{"type":"Point","coordinates":[-100.3821,35.9128]}},{"id":6844,"type":"Feature","properties":{"name":"St. Bernard","state":"OH","type":1,"confirmed":2,"sign":0,"ordinance":0,"showcase":0},"geometry":{"type":"Point","coordinates":[-84.5,39.17]}},{"id":6843,"type":"Feature","properties":{"name":"Covedale CDP","state":"OH","type":1,"confirmed":2,"sign":0,"ordinance":0,"showcase":0},"geometry":{"type":"Point","coordinates":[-84.61,39.12]}},{"id":6842,"type":"Feature","properties":{"name":"Brunswick","state":"OH","type":1,"confirmed":3,"sign":0,"ordinance":0,"showcase":0},"geometry":{"type":"Point","coordinates":[-81.8418,41.2381]}},{"id":6841,"type":"Feature","properties":{"name":"Bay Village","state":"OH","type":1,"confirmed":2,"sign":0,"ordinance":0,"showcase":0},"geometry":{"type":"Point","coordinates":[-81.9221,41.4848]}},{"id":6840,"type":"Feature","properties":{"name":"Bedford","state":"OH","type":2,"confirmed":2,"sign":0,"ordinance":0,"showcase":0},"geometry":{"type":"Point","coordinates":[-81.5365,41.3931]}},{"id":6839,"type":"Feature","properties":{"name":"Rocky River","state":"OH","type":2,"confirmed":2,"sign":0,"ordinance":0,"showcase":0},"geometry":{"type":"Point","coordinates":[-81.8393,41.4756]}},{"id":6838,"type":"Feature","properties":{"name":"Sheffield Lake","state":"OH","type":1,"confirmed":2,"sign":0,"ordinance":0,"showcase":0},"geometry":{"type":"Point","coordinates":[-82.1015,41.4875]}},{"id":6837,"type":"Feature","properties":{"name":"Hudson","state":"OH","type":1,"confirmed":2,"sign":0,"ordinance":0,"showcase":0},"geometry":{"type":"Point","coordinates":[-81.4407,41.2401]}},{"id":6836,"type":"Feature","properties":{"name":"Douglas County","state":"NE","type":2,"confirmed":2,"sign":0,"ordinance":0,"showcase":0},"geometry":{"type":"Point","coordinates":[-96.15,41.3]}},{"id":6835,"type":"Feature","properties":{"name":"Lancaster County","state":"NE","type":4,"confirmed":2,"sign":0,"ordinance":0,"showcase":0},"geometry":{"type":"Point","coordinates":[-96.69,40.78]}},{"id":6834,"type":"Feature","properties":{"name":"Box Butte","state":"NE","type":4,"confirmed":2,"sign":0,"ordinance":0,"showcase":0},"geometry":{"type":"Point","coordinates":[-103.08,42.21]}},{"id":6833,"type":"Feature","properties":{"name":"Hall County","state":"NE","type":4,"confirmed":2,"sign":0,"ordinance":0,"showcase":0},"geometry":{"type":"Point","coordinates":[-98.5,40.87]}},{"id":6832,"type":"Feature","properties":{"name":"Scotts Bluff","state":"NE","type":4,"confirmed":2,"sign":0,"ordinance":0,"showcase":0},"geometry":{"type":"Point","coordinates":[-103.71,41.85]}},{"id":6831,"type":"Feature","properties":{"name":"Adams County","state":"NE","type":4,"confirmed":2,"sign":0,"ordinance":0,"showcase":0},"geometry":{"type":"Point","coordinates":[-98.5,40.52]}},{"id":6830,"type":"Feature","properties":{"name":"Algonac","state":"MI","type":1,"confirmed":2,"sign":0,"ordinance":0,"showcase":0},"geometry":{"type":"Point","coordinates":[-82.531,42.6184]}},{"id":6829,"type":"Feature","properties":{"name":"Menominee","state":"MI","type":1,"confirmed":2,"sign":0,"ordinance":0,"showcase":0},"geometry":{"type":"Point","coordinates":[-87.6145,45.1077]}},{"id":6828,"type":"Feature","properties":{"name":"St. Clair","state":"MI","type":1,"confirmed":2,"sign":0,"ordinance":0,"showcase":0},"geometry":{"type":"Point","coordinates":[-82.486,42.8209]}},{"id":6827,"type":"Feature","properties":{"name":"Utica","state":"MI","type":1,"confirmed":2,"sign":0,"ordinance":0,"showcase":0},"geometry":{"type":"Point","coordinates":[-83.0335,42.6261]}},{"id":6826,"type":"Feature","properties":{"name":"Rockwood","state":"MI","type":1,"confirmed":2,"sign":0,"ordinance":0,"showcase":0},"geometry":{"type":"Point","coordinates":[-83.2466,42.0709]}},{"id":6825,"type":"Feature","properties":{"name":"Rockford","state":"MI","type":1,"confirmed":2,"sign":0,"ordinance":0,"showcase":0},"geometry":{"type":"Point","coordinates":[-85.5596,43.1197]}},{"id":6824,"type":"Feature","properties":{"name":"Richmond","state":"MI","type":1,"confirmed":2,"sign":0,"ordinance":0,"showcase":0},"geometry":{"type":"Point","coordinates":[-82.7558,42.8092]}},{"id":6823,"type":"Feature","properties":{"name":"New Baltimore","state":"MI","type":1,"confirmed":2,"sign":0,"ordinance":0,"showcase":0},"geometry":{"type":"Point","coordinates":[-82.7369,42.6811]}},{"id":6822,"type":"Feature","properties":{"name":"Fraser","state":"MI","type":1,"confirmed":2,"sign":0,"ordinance":0,"showcase":0},"geometry":{"type":"Point","coordinates":[-82.9494,42.5392]}},{"id":6821,"type":"Feature","properties":{"name":"Gage County","state":"NE","type":4,"confirmed":2,"sign":0,"ordinance":0,"showcase":0},"geometry":{"type":"Point","coordinates":[-96.69,40.27]}},{"id":6820,"type":"Feature","properties":{"name":"Dodge County","state":"NE","type":4,"confirmed":2,"sign":0,"ordinance":0,"showcase":0},"geometry":{"type":"Point","coordinates":[-96.65,41.58]}},{"id":6819,"type":"Feature","properties":{"name":"Buffalo County","state":"NE","type":4,"confirmed":2,"sign":0,"ordinance":0,"showcase":0},"geometry":{"type":"Point","coordinates":[-99.07,40.86]}},{"id":6818,"type":"Feature","properties":{"name":"Otoe County","state":"NE","type":4,"confirmed":2,"sign":0,"ordinance":0,"showcase":0},"geometry":{"type":"Point","coordinates":[-95.8617,40.6762]}},{"id":6817,"type":"Feature","properties":{"name":"Richardson County","state":"NE","type":4,"confirmed":2,"sign":0,"ordinance":0,"showcase":0},"geometry":{"type":"Point","coordinates":[-95.72,40.12]}},{"id":6816,"type":"Feature","properties":{"name":"Dawes County","state":"NE","type":4,"confirmed":2,"sign":0,"ordinance":0,"showcase":0},"geometry":{"type":"Point","coordinates":[-103.14,42.71]}},{"id":6815,"type":"Feature","properties":{"name":"Red Willow County","state":"NE","type":4,"confirmed":2,"sign":0,"ordinance":0,"showcase":0},"geometry":{"type":"Point","coordinates":[-100.48,40.18]}},{"id":6814,"type":"Feature","properties":{"name":"Madison County","state":"NE","type":4,"confirmed":2,"sign":0,"ordinance":0,"showcase":0},"geometry":{"type":"Point","coordinates":[-97.6,41.92]}},{"id":6813,"type":"Feature","properties":{"name":"Lincoln County","state":"NE","type":4,"confirmed":2,"sign":0,"ordinance":0,"showcase":0},"geometry":{"type":"Point","coordinates":[-100.75,41.05]}},{"id":6812,"type":"Feature","properties":{"name":"Cherry County","state":"NE","type":4,"confirmed":0,"sign":0,"ordinance":0,"showcase":0},"geometry":{"type":"Point","coordinates":[-101.12,42.54]}},{"id":6811,"type":"Feature","properties":{"name":"York County","state":"NE","type":4,"confirmed":2,"sign":0,"ordinance":0,"showcase":0},"geometry":{"type":"Point","coordinates":[-97.6,40.87]}},{"id":6810,"type":"Feature","properties":{"name":"Sarpy County","state":"NE","type":4,"confirmed":0,"sign":0,"ordinance":0,"showcase":0},"geometry":{"type":"Point","coordinates":[-96.11,41.11]}},{"id":6809,"type":"Feature","properties":{"name":"Merrick County","state":"NE","type":4,"confirmed":0,"sign":0,"ordinance":0,"showcase":0},"geometry":{"type":"Point","coordinates":[-98.03,41.17]}},{"id":6808,"type":"Feature","properties":{"name":"Sheridan County","state":"NE","type":4,"confirmed":0,"sign":0,"ordinance":0,"showcase":0},"geometry":{"type":"Point","coordinates":[-102.43,42.5]}},{"id":6807,"type":"Feature","properties":{"name":"Nemaha County","state":"NE","type":4,"confirmed":2,"sign":0,"ordinance":0,"showcase":0},